,Property_keywords,bedrooms,bathrooms,area,prices,locations,property_types,Latitude,Longitude
0,Newly Furnished | Modern Amenities | Family-Oriented,Studio,1,405 sqft,"3,999","Carson Tower C, Carson - The Drive, DAMAC Hills, Dubai",Apartment,25.0254132,55.24445960000001
1,AMAZING STUDIO IN JVC || WELL FURNISHED || GRAB NOW,Studio,1,457 sqft,"3,199","Plazzo Heights, JVC District 10, Jumeirah Village Circle (JVC), Dubai",Apartment,25.0650236,55.2085523
2,FULLY FURNISHED STUDIO || CLASSY INTERIOR || CALL US NOW,Studio,1,425 sqft,"3,499","Plazzo Heights, JVC District 10, Jumeirah Village Circle (JVC), Dubai",Apartment,25.0650236,55.2085523
3,SPACIOUS & LUXURIOUS/ HIGH QUALITY FURNISHER/HUGE BALCONY/WIFI.,1,2,993 sqft,"5,999","Pantheon Boulevard, JVC District 13, Jumeirah Village Circle (JVC), Dubai",Apartment,25.0505375,55.2140195
4,MOST ELAGENT STUDIO IN JVC || COMPLETLY FURNISHED || CONTACT US NOW,Studio,1,399 sqft,"3,299","Plazzo Heights, JVC District 10, Jumeirah Village Circle (JVC), Dubai",Apartment,25.0650236,55.2085523
5,AMAZING STUDIO || FULLY FURNISHED || CALL US NOW,Studio,1,373 sqft,"3,499","Laya Mansion, JVC District 15, Jumeirah Village Circle (JVC), Dubai",Apartment,25.0559406,55.2011756
6,Spacious  Luxury Apartment in Bluewater Island | Utilities Included,1,2,"1,118 sqft","16,500","Apartment Building 5, Bluewaters Residences, Bluewaters Island, Dubai",Apartment,25.0792222,55.11966839999999
7,FREE TICKETS SUMMER SALE:  Sophisticated 2BR in Dubai Marina,2,2,"1,461 sqft","9,800","Al Sahab Tower 2, Al Sahab Tower, Dubai Marina, Dubai",Apartment,25.075969,55.135692
8,Stylish Studio | Modern Amenities | Convenient Location,Studio,1,464 sqft,"3,499","Divine Residences, Arjan, Dubai",Apartment,25.0656864,55.2484337
9,FULLY FURNISHED 1BHK + MAID  || AMAZING LAYOUT || CALL US NOW,1,1,886 sqft,"4,899","Laya Mansion, JVC District 15, Jumeirah Village Circle (JVC), Dubai",Apartment,25.0559406,55.2011756
10,Free Cleaning | No Commission | Marina View,1,2,856 sqft,"12,999","Jumeirah Gate Tower 1, The Address Residences Jumeirah Resort and Spa, Jumeirah Beach Residence (JBR), Dubai",Apartment,25.0769441,55.1341346
11,Summer Promotion | Specious  Studio | Health Club | Eagle Heights,Studio,1,422 sqft,"3,499","Eagle Heights, Dubai Sports City, Dubai",Apartment,25.0365874,55.2209596
12,Bird's view studio in The Palm Tower,Studio,1,523 sqft,"8,500","The Palm Tower, Palm Jumeirah, Dubai",Apartment,25.1137853,55.1399566
13,View of Downtown Skyscrapers | Relaxing | Modern,1,2,809 sqft,"7,500","Elite Downtown Residence, Downtown Dubai, Dubai",Apartment,25.1860802,55.2783379
14,Limited Time Offer | Modern Amenities | Burj Al Arab View,1,2,808 sqft,"8,500","Rahaal Building 2, Rahaal, Madinat Jumeirah Living, Umm Suqeim, Dubai",Apartment,25.1353776,55.1893765
15,Luxury | No Bills | Highly Upgraded,2,3,"1,167 sqft","19,999","Jumeirah Gate Tower 1, The Address Residences Jumeirah Resort and Spa, Jumeirah Beach Residence (JBR), Dubai",Apartment,25.0769441,55.1341346
16,CLASSY FURNISHED 1BHK || SPACIOUS LAYOUT || READY TO MOVE IN,1,1,712 sqft,"4,899","Laya Mansion, JVC District 15, Jumeirah Village Circle (JVC), Dubai",Apartment,25.0559406,55.2011756
17,Most Exclusive Listing! Full Burj Khalifa & Fountains view. New tower!,2,2,"1,022 sqft","18,000","Burj Royale, Downtown Dubai, Dubai",Apartment,25.1916802,55.2801754
18,"Luxury Studio in Pantheon Elysee, Dubai",Studio,1,475 sqft,"3,899","Pantheon Elysee, JVC District 13, Jumeirah Village Circle (JVC), Dubai",Apartment,25.0601975,55.2093505
19,READY TO MOVE IN STUDIO || FULLY FURNISHED || CALL US NOW,Studio,1,409 sqft,"3,499","Laya Mansion, JVC District 15, Jumeirah Village Circle (JVC), Dubai",Apartment,25.0559406,55.2011756
20,Stunning 3BR Sea View Bluewaters B10,3,3,"2,173 sqft","45,000","Apartment Building 10, Bluewaters Residences, Bluewaters Island, Dubai",Apartment,25.0792222,55.11966839999999
21,Brand New | Furnished  Apartment | Burj Khalifa View,2,3,"1,220 sqft","14,950","Downtown Views, Za'abeel 2, Za'abeel, Dubai",Apartment,25.2024286,55.2809328
22,LUXURIOUS STUDIO IN SPORTS CITY| CANAL VIEWS|BILLS INCLUDED,Studio,1,398 sqft,"4,799","Hera Tower, Dubai Sports City, Dubai",Apartment,25.0403885,55.2225976
23,CLASSY FURNISHED STUDIO || READY TO MOVE IN || CALL US NOW,Studio,1,396 sqft,"3,199","Plazzo Heights, JVC District 10, Jumeirah Village Circle (JVC), Dubai",Apartment,25.0650236,55.2085523
24,Summer Offer |Furnished  Lux 1Bedroom Burj View | Downtown,1,2,989 sqft,"7,999","Burj Views Podium, Burj Views, Downtown Dubai, Dubai",Apartment,25.190671,55.281873
25,MOST AMAZINGLY FURNISHED 1BHK || BEAUTIFUL INTERIORS || CONTACT US NOW,1,2,746 sqft,"4,899","Laya Mansion, JVC District 15, Jumeirah Village Circle (JVC), Dubai",Apartment,25.0559406,55.2011756
26,Budget Friendly | Trendy | Brand New Flexi Lease,1,2,595 sqft,"4,950","Summer 2 Block B, Summer, Seasons Community, JVC District 15, Jumeirah Village Circle (JVC), Dubai",Apartment,25.059869,55.2023609
27,CLASSY FURNISHED 1BHK || SPACIOUS || READY TO MOVE IN,1,2,813 sqft,"4,899","Laya Mansion, JVC District 15, Jumeirah Village Circle (JVC), Dubai",Apartment,25.0559406,55.2011756
28,Spacious 2Bed | Modern Furnishing | Free cleaning,2,2,"1,373 sqft","8,999","Sulafa Tower, Dubai Marina, Dubai",Apartment,25.08946,55.14892769999999
29,City View | Weekly Cleaning | Bills Included,1,2,888 sqft,"8,999","1 Residences, Wasl 1, Al Kifaf, Bur Dubai, Dubai",Apartment,25.2327163,55.2954647
30,Stunning Apartment / Best Price / Fully Furnished / Wi-Fi,2,2,970 sqft,"7,000","Pantheon Boulevard, JVC District 13, Jumeirah Village Circle (JVC), Dubai",Apartment,25.0505375,55.2140195
31,AMAZING STUDIO || READY TO MOVE IN || CALL US NOW,Studio,1,462 sqft,"3,799","Plazzo Heights, JVC District 10, Jumeirah Village Circle (JVC), Dubai",Apartment,25.0650236,55.2085523
32,Fully Furnished | Modern Amenities | View of Water,1,2,779 sqft,"7,999","Fairview Residency, Business Bay, Dubai",Apartment,25.1818912,55.2796232
33,Modern Downtown Apartment | Utilities Included,1,2,886 sqft,"8,000","DAMAC Maison Dubai Mall Street, Downtown Dubai, Dubai",Apartment,25.195023,55.2835529
34,Summer Promotion | Duplex Type | Modern Amenities | Family-Oriented,3,3,"1,331 sqft","11,999","Binghatti Avenue, Al Jaddaf, Dubai",Apartment,25.2122955,55.3164952
35,Elegant Furnished Studio with Partial Marina Views,Studio,1,502 sqft,"8,000","Studio One Tower, Dubai Marina, Dubai",Apartment,25.0691036,55.1289728
36,FULLY FURNISHED STUDIO || LUXURY INTERIOR || BIGEST LAYOUT,Studio,1,483 sqft,"4,999","Nicholas Residence, JVC District 12, Jumeirah Village Circle (JVC), Dubai",Apartment,25.0550125,55.2114463
37,FREE Utility Bills I 1 Bedroom Fully Furnished,1,2,752 sqft,"6,800","Arabian Gates, Dubai Silicon Oasis, Dubai",Apartment,25.1279484,55.3862638
38,Premium 1BR APT | BILLS INCLUDED | POOL VIEW | NEAR DUBAI MALL | NEAR METRO,1,1,490 sqft,"9,000","Zada Tower, Business Bay, Dubai",Apartment,25.1844747,55.2617373
39,Summer Special Offer | Best Community | Family-Oriented,2,1,731 sqft,"8,999","Collective 2.0, Dubai Hills Estate, Dubai",Apartment,25.114898,55.24761489999999
40,Luxury | High Floor | Burj Khalifa View,2,2,"1,422 sqft","15,000","The Lofts West, The Lofts, Downtown Dubai, Dubai",Apartment,25.1965476,55.2695474
41,SUMMER DEAL ll LUXURY 1BR ll POOL VIEW,1,2,662 sqft,"6,299","Binghatti Rose, JVC District 15, Jumeirah Village Circle (JVC), Dubai",Apartment,25.057719,55.1992667
42,Best Offer | Creek View | All Bills Included,1,1,805 sqft,"8,000","The Grand, Dubai Creek Harbour, Dubai",Apartment,25.209088,55.3434709
43,Brand New Studio/ Furnished/Kitchen Appliances/Balcony,Studio,1,381 sqft,"4,000","Pantheon Elysee, JVC District 13, Jumeirah Village Circle (JVC), Dubai",Apartment,25.0601975,55.2093505
44,AMAZING 1BHK || COMPLETLY FURNISHED || CALL US NOW,1,2,841 sqft,"4,899","Laya Mansion, JVC District 15, Jumeirah Village Circle (JVC), Dubai",Apartment,25.0559406,55.2011756
45,Summer Promotion | Newly Furnished | Binghatti Gate | Family-Oriented,1,2,646 sqft,"5,999","Binghatti Gate, JVC District 15, Jumeirah Village Circle (JVC), Dubai",Apartment,25.062582,55.199362
46,NO COMMISION ! Free Bills ! Furnished 1BD Apartment | Utility Bills Included,1,1,845 sqft,"7,300","The Signature, Downtown Dubai, Dubai",Apartment,25.1949849,55.2784141
47,Spacious 1-Bedroom Apartment with Sea View at Royal Amwaj  | Direct from Landlord | No Comission,1,2,"1,555 sqft","12,999","Anantara Residences - South, Anantara Residences, Palm Jumeirah, Dubai",Apartment,25.1313252,55.1529958
48,AMAZINGLY FURNISHED STUDIO || READY TO MOVE IN || CALL US NOW,Studio,1,397 sqft,"3,199","Plazzo Heights, JVC District 10, Jumeirah Village Circle (JVC), Dubai",Apartment,25.0650236,55.2085523
49,Stunning 1 Bedroom Apartment / Skyline Marina Views,1,1,795 sqft,"6,690","Bloom Tower A, Bloom Towers, JVC District 10, Jumeirah Village Circle (JVC), Dubai",Apartment,25.0666071,55.202942
50,Pay Monthly 2490  AED ||  With Balcony Fully Furnished II Ready to move,Studio,1,479 sqft,"2,490","S-23, Spain Cluster, International City, Dubai",Apartment,25.1651813,55.4021761
51,Naturally Well-Lit | Family-Oriented | Convenient Location,2,3,"1,502 sqft","24,999","Apartment Building 8, Bluewaters Residences, Bluewaters Island, Dubai",Apartment,25.0792222,55.11966839999999
52,LUXURY APARTMENT | 3 BR + Maid | OPERA GRAND,3,3,"2,048 sqft","24,800","Opera Grand, Downtown Dubai, Dubai",Apartment,25.1937217,55.2712261
53,Fully Furnished | Modern Amenities | Jogging Track,Studio,1,350 sqft,"3,999","Bloom Tower C, Bloom Towers, JVC District 10, Jumeirah Village Circle (JVC), Dubai",Apartment,25.0675496,55.203833
54,Limited Time Offer | Modern Amenities | Best Location,1,1,754 sqft,"5,999","Bloom Tower C, Bloom Towers, JVC District 10, Jumeirah Village Circle (JVC), Dubai",Apartment,25.0675496,55.203833
55,Lovely 1 bedroom | Newly Furnished | Bills Included,1,1,532 sqft,"7,500","15 Northside, Business Bay, Dubai",Apartment,25.1866696,55.2865019
56,MOST AMAZINGLY FURNISHED 1BHK || CALL US NOW,1,2,780 sqft,"4,899","Plazzo Heights, JVC District 10, Jumeirah Village Circle (JVC), Dubai",Apartment,25.0650236,55.2085523
57,Holiday Offer! Palm and Pool View 1BR with Free Beach Access,1,2,949 sqft,"12,000","Azizi Mina, Palm Jumeirah, Dubai",Apartment,25.1269446,55.153537
58,HIGH QUALITY STUDIO || WELL FURNISHED || MOST ELAGANT,Studio,1,444 sqft,"3,299","Laya Mansion, JVC District 15, Jumeirah Village Circle (JVC), Dubai",Apartment,25.0559406,55.2011756
59,Spacious One Bedroom with HUGE Balcony Furnished -Free DEWA & Internet,1,1,824 sqft,"6,400","Binghatti Point, Dubai Silicon Oasis, Dubai",Apartment,25.1216111,55.3729196
60,Designer Furnished | Modern Amenities | Children\'s Pool,1,1,706 sqft,"6,499","Binghatti Avenue, Al Jaddaf, Dubai",Apartment,25.2122955,55.3164952
61,BRAND NEW STUDIO || FULLY FURNISHED || CALL US NOW,Studio,1,412 sqft,"3,199","Laya Mansion, JVC District 15, Jumeirah Village Circle (JVC), Dubai",Apartment,25.0559406,55.2011756
62,LUXURIOUSLY FURNISHED STUDIO || HIGH FLOOR || CALL US NOW,Studio,1,517 sqft,"3,699","G24 Tower, JVC District 11, Jumeirah Village Circle (JVC), Dubai",Apartment,25.0678676,55.2150508
63,FULLY FURNISHED 1BHK || AMAZING INTERIOR || CALL US NOW,1,1,890 sqft,"4,999","Laya Mansion, JVC District 15, Jumeirah Village Circle (JVC), Dubai",Apartment,25.0559406,55.2011756
64,Skyline View | Modern Furnished | Emaar Properties,2,3,"1,329 sqft","44,998","The Address Sky View Tower 1, The Address Residence Sky View, Downtown Dubai, Dubai",Apartment,25.2014188,55.2706273
65,Golf course facing studio | Fully Furnished,Studio,1,409 sqft,"3,999","Eagle Heights, Dubai Sports City, Dubai",Apartment,25.0365874,55.2209596
66,"Hot offer!!!! Sophisticated Studio Apartment - Miraclz Tower, Arjan",Studio,1,390 sqft,"4,998","Miraclz Tower by Danube, Arjan, Dubai",Apartment,25.0583148,55.23891339999999
67,A gem in the middle of Dubai by 2ndhome,1,1,872 sqft,"14,999","Noora, Al Habtoor City, Business Bay, Dubai",Apartment,25.1841785,55.254316
68,Lovely One Bedroom at Sobha Creek Vistas Reserve,1,1,558 sqft,"7,500","Sobha Creek Vistas Tower B, Sobha Creek Vistas, Sobha Hartland, Dubai",Apartment,25.178171,55.31345630000001
69,ALL BILLS INCLUDED! 1BR at Stella Maris in Dubai Marina by Rich Stay,1,1,"1,021 sqft","7,500","Stella Maris, Dubai Marina, Dubai",Apartment,25.0699495,55.13248950000001
70,Special Offer | 2BR  Large Balcony Park View,2,2,"1,377 sqft","13,000","Regent Court, JVC District 14, Jumeirah Village Circle (JVC), Dubai",Apartment,25.053366,55.2061469
71,Modern style 2 bedroom Marina including bills,2,2,"1,169 sqft","9,999","Escan Marina Tower, Dubai Marina, Dubai",Apartment,25.0683427,55.1330463
72,Great Views | Perfect Studio Apartment | Palm Jumeriah | Dubai,Studio,1,524 sqft,"16,000","The Palm Tower, Palm Jumeirah, Dubai",Apartment,25.1137853,55.1399566
73,Unique Modern Apt Stunning Canal View 1BR,1,2,668 sqft,"7,499","Merano Tower, Business Bay, Dubai",Apartment,25.1848281,55.2603221
74,Amazing Deal! All-Inclusive Brand New 2 Bedroom Apartment Featuring a Spacious Balcony,2,2,962 sqft,"6,999","Pantheon Boulevard, JVC District 13, Jumeirah Village Circle (JVC), Dubai",Apartment,25.0505375,55.2140195
75,WELL FURNISHED STUDIO || LAVISH LIVING || AMAZING INTERIOR,Studio,1,402 sqft,"3,299","Laya Mansion, JVC District 15, Jumeirah Village Circle (JVC), Dubai",Apartment,25.0559406,55.2011756
76,6BR Ultra Lux Villa w Pool in Palm Jumeirah,6,6,"17,115 sqft","120,000","Garden Homes Frond O, Garden Homes Palm Jumeirah, Palm Jumeirah, Dubai",Villa,25.1116577,55.1304098
77,CLASSY FURNISHED STUDIO || CALL US NOW,Studio,1,410 sqft,"3,199","Laya Mansion, JVC District 15, Jumeirah Village Circle (JVC), Dubai",Apartment,25.0559406,55.2011756
78,CHEAPEST DEAL II NEWLY FURNISHED STUDIO IN ENGLAND CLUSTER,Studio,1,484 sqft,"2,490","X-02, England Cluster, International City, Dubai",Apartment,25.1736832,55.4049437
79,POOL VIEW || LUXURIOUSLY FURNISHED STUDIO || CONTACT US NOW,Studio,1,456 sqft,"3,299","Plazzo Heights, JVC District 10, Jumeirah Village Circle (JVC), Dubai",Apartment,25.0650236,55.2085523
80,Summer Promotion | Fully Furnished | Swimming Pool | Family-Oriented,1,2,932 sqft,"6,999","Elite Business Bay Residence, Business Bay, Dubai",Apartment,25.1799797,55.2659768
81,READY TO MOVE || FULLY FURNISHED 1BHK || CALL US NOW,1,2,793 sqft,"4,899","Plazzo Heights, JVC District 10, Jumeirah Village Circle (JVC), Dubai",Apartment,25.0650236,55.2085523
82,STUNNING 1BHK || READY TO MOVE IN || CALL US NOW,1,2,916 sqft,"4,899","Plazzo Heights, JVC District 10, Jumeirah Village Circle (JVC), Dubai",Apartment,25.0650236,55.2085523
83,Breathtaking Sea View Unit  l Blue Waters | Utilities Included,2,3,"1,448 sqft","25,000","Apartment Building 5, Bluewaters Residences, Bluewaters Island, Dubai",Apartment,25.0792222,55.11966839999999
84,Amazing 1 BR / Fully Furnished / Balcony / Wi-Fi,1,2,992 sqft,"5,999","Pantheon Boulevard, JVC District 13, Jumeirah Village Circle (JVC), Dubai",Apartment,25.0505375,55.2140195
85,Fully Furnished | Modern Amenities | Perfect Location,2,2,"1,343 sqft","8,499","Elite Business Bay Residence, Business Bay, Dubai",Apartment,25.1799797,55.2659768
86,Resort-style Living & Marina Views at Address JBR,2,2,"1,152 sqft","18,000","Jumeirah Gate Tower 1, The Address Residences Jumeirah Resort and Spa, Jumeirah Beach Residence (JBR), Dubai",Apartment,25.0769441,55.1341346
87,High Floor | Top Notch Amenities | Modern Furnished,1,1,666 sqft,"5,998","Bloom Towers, JVC District 10, Jumeirah Village Circle (JVC), Dubai",Apartment,25.065054,55.2057745
88,Sublime 3 bedroom | with Dubai Eye View | Beach Access,3,4,"2,406 sqft","27,000","Al Bateen Towers, The Walk, Jumeirah Beach Residence (JBR), Dubai",Apartment,25.072367,55.127675
89,Luxury Downtown Dubai Oasis ~ Burj & Fountain Views,2,3,"1,646 sqft","55,000","Opera Grand, Downtown Dubai, Dubai",Apartment,25.1937217,55.2712261
90,Brand New | High Floor | Fountain View | All Inclusive,2,3,"1,676 sqft","22,199","Opera Grand, Downtown Dubai, Dubai",Apartment,25.1937217,55.2712261
91,ENCHANTING 2 BR APT | PETS ALLOWED | HIGH FLOOR | BILLS INCLUDED | NEAR DUBAI MALL,2,3,"1,394 sqft","12,500","Tower D, DAMAC Towers by Paramount Hotels and Resorts, Business Bay, Dubai",Apartment,25.1831647,55.272887
92,Upgraded 2 Bedrooms | Mall Street | All Bills Included,2,3,"1,372 sqft","12,500","The Signature, Downtown Dubai, Dubai",Apartment,25.1949849,55.2784141
93,Bright Studio | Newly Furnished | All Bills Included,Studio,1,380 sqft,"5,950","15 Northside, Business Bay, Dubai",Apartment,25.1866696,55.2865019
94,HOT OFFER FOR  IMMEDIATE MOVE IN  !! BRILLIANT 1BHK IN DUBAI MARINA,1,2,837 sqft,"6,499","Marina Pinnacle, Dubai Marina, Dubai",Apartment,25.0886968,55.1481894
95,Ravishing 1 Bedroom | Downtown Views II | Fully Furnished,1,1,737 sqft,"10,000","Downtown Views, Za'abeel 2, Za'abeel, Dubai",Apartment,25.2024286,55.2809328
96,"Sun, Sand, Sea View & Dubai Luxury at Address JBR",4,5,"2,555 sqft","70,000","Jumeirah Gate Tower 1, The Address Residences Jumeirah Resort and Spa, Jumeirah Beach Residence (JBR), Dubai",Apartment,25.0769441,55.1341346
97,Amazing Building Facilies! Stylish 1BR | Bayz By Danube,1,1,545 sqft,"5,800","Bayz by Danube, Business Bay, Dubai",Apartment,25.1808454,55.2792744
98,Modern Furnished | Convenient Location | Family-Oriented,1,1,693 sqft,"4,999","Hayat Boulevard, Town Square, Dubai",Apartment,25.004806,55.29637469999999
99,Studio Apartment in DAMAC Maison Prive l Canal View,Studio,1,401 sqft,"7,499","DAMAC Maison Prive, Business Bay, Dubai",Apartment,25.1843104,55.2755156
100,No commission | All Bills included | Amazing Marina View,1,1,736 sqft,"6,999","Iris Blue, Dubai Marina, Dubai",Apartment,25.0851904,55.14474019999999
101,LUXURY VACATION HOME IN DAMAC HILLS | AVAILABLE IMMEDIATELY | BILLS INCLUDED |  PETS ALLOWED | HIGH FLOOR | GOLF VIEW,1,2,767 sqft,"8,300","Carson Tower C, Carson - The Drive, DAMAC Hills, Dubai",Apartment,25.0254132,55.24445960000001
102,Stunning Full Sea View High Floor Two-Bedroom Apartment,2,3,"1,376 sqft","12,000","Shams 1, Shams, Jumeirah Beach Residence (JBR), Dubai",Apartment,25.0769441,55.1341346
103,Brand New | Exclusive Luxury Studio in Amara Residences,Studio,1,490 sqft,"4,299","Amara Residences, JVC District 15, Jumeirah Village Circle (JVC), Dubai",Apartment,25.0566751,55.1973834
104,Upgraded Interior | 3 Bedrooms | All Bills Included,3,4,"2,439 sqft","22,000","Marina Residences 4, Marina Residences, Palm Jumeirah, Dubai",Apartment,25.116092,55.137411
105,Summer Offer | Modern Amenities | Family-Oriented,Studio,1,393 sqft,"3,999","Bloom Towers, JVC District 10, Jumeirah Village Circle (JVC), Dubai",Apartment,25.065054,55.2057745
106,Stylish Sea View High Floor Two-Bedroom Apartment,2,3,"1,263 sqft","11,800","Shams 4, Shams, Jumeirah Beach Residence (JBR), Dubai",Apartment,25.0728716,55.129994
107,FREE TICKETS SUMMER SALE: Splendor 2BR in Address JBR- Private beach access | NO COMMISSION,2,2,"1,167 sqft","24,000","Jumeirah Gate Tower 1, The Address Residences Jumeirah Resort and Spa, Jumeirah Beach Residence (JBR), Dubai",Apartment,25.0769441,55.1341346
108,HUGE & SPACIOUS 1BR | FURNISHED | PRIME LOCATION,1,2,741 sqft,"4,798","Silicon Gates 1, Silicon Gates, Dubai Silicon Oasis, Dubai",Apartment,25.1169625,55.3911833
109,Newly Renovated | Modern Amenities | Family-Oriented,Studio,1,352 sqft,"4,999","Farhad Azizi Residence, Dubai Healthcare City Phase 2, Al Jaddaf, Dubai",Apartment,25.2090203,55.315404
110,FREE TICKETS SUMMER SALE: Stylish 1BR in Creek Harbour with Sand Beach,1,1,714 sqft,"8,000","Breeze 3, Breeze, Dubai Creek Harbour, Dubai",Apartment,25.1945448,55.3641298
111,Fully Furnished l Easy Access to many famous attractions l All bills included & NO COMMISSION,2,3,924 sqft,"7,500","Kensington Manor, JVC District 13, Jumeirah Village Circle (JVC), Dubai",Apartment,25.0479893,55.2074353
112,Summer Promotion | Brand New |Modern Studio | Community View | Damac Hills,Studio,1,405 sqft,"4,499","Carson Tower C, Carson - The Drive, DAMAC Hills, Dubai",Apartment,25.0254132,55.24445960000001
113,Upgraded 3BR+Maids | Prime Location I Ain Dubai View,3,4,"2,172 sqft","24,000","Al Fattan Marine Tower, Al Fattan Marine Towers, Jumeirah Beach Residence (JBR), Dubai",Apartment,25.0793688,55.1366779
114,FULLY FURNISHED 1BHK || SPACIOUS LAYOUT || CALL US NOW,1,1,762 sqft,"4,899","Laya Mansion, JVC District 15, Jumeirah Village Circle (JVC), Dubai",Apartment,25.0559406,55.2011756
115,Burj Bliss: Modern Living & Scenic Balcony,2,3,"1,715 sqft","30,000","Opera Grand, Downtown Dubai, Dubai",Apartment,25.1937217,55.2712261
116,Stylish Furnished in the heart of Downtown / Canal View / close to Burj Khalifa,1,2,830 sqft,"8,000","Millennium Binghatti Residences, Business Bay, Dubai",Apartment,25.1805314,55.2689479
117,Burj View | Weekly Cleaning | Bills Included,Studio,1,494 sqft,"6,950","Elite Downtown Residence, Downtown Dubai, Dubai",Apartment,25.1860802,55.2783379
118,Stunning One Bedroom in Address JBR,1,2,625 sqft,"11,999","Jumeirah Gate Tower 1, The Address Residences Jumeirah Resort and Spa, Jumeirah Beach Residence (JBR), Dubai",Apartment,25.0769441,55.1341346
119,All Bills Included | 2 BR in Arjan | Carson A,2,2,"1,331 sqft","8,900","Carson Tower A, Carson - The Drive, DAMAC Hills, Dubai",Apartment,25.0254132,55.24445960000001
120,1BDR Apartment with Dubai Marina view I Close to Metro,1,1,754 sqft,"8,000","Marina Diamond 4, Marina Diamonds, Dubai Marina, Dubai",Apartment,25.0802904,55.1453144
121,Dubai Creek View | All Bills Included | Fully Furnished,3,4,"1,545 sqft","15,500","Harbour Views 1, Harbour Views, Dubai Creek Harbour, Dubai",Apartment,25.2053316,55.3447823
122,Luxury Urban Living with Unbeatable Summer Rate,3,5,"2,325 sqft","28,000","Stella Maris, Dubai Marina, Dubai",Apartment,25.0699495,55.13248950000001
123,LAVISH 3 BEDROOM IN MUDON|BILLS INCLUDED|MAIDS ROOM,3,4,"1,973 sqft","14,999","Mudon Views, Mudon, Dubai",Apartment,25.0235058,55.2650941
124,PRIME LOCATION! Modern 2BR in Downtown Dubai | Burj Al Nujoom,2,2,"1,378 sqft","9,700","Burj Al Nujoom, Downtown Dubai, Dubai",Apartment,25.1910236,55.2822663
125,La Mer Beach Luxurious Spacious Apartment,2,4,"1,500 sqft","13,500","AL Telal 12 Building, Jumeirah 1, Jumeirah, Dubai",Apartment,25.2274535,55.2612202
126,Inviting Studio | Near UAE Exchange Metro Station,Studio,1,340 sqft,"4,000","Azizi Aura, Downtown Jebel Ali, Jebel Ali, Dubai",Apartment,24.980273,55.0924705
127,NEW UNIT! Luxurious 1 BR | Fairmont South,1,1,"1,290 sqft","15,000","The Fairmont Palm Residence South, The Fairmont Palm Residences, Palm Jumeirah, Dubai",Apartment,25.1099215,55.1408733
128,Marina Views | Fully Furnished | Spacious Layout,2,2,"1,278 sqft","12,650","Marina Park, Dubai Marina, Dubai",Apartment,25.0687372,55.13348790000001
129,City View | High Floor | Boulevard,1,1,958 sqft,"9,800","The Lofts West, The Lofts, Downtown Dubai, Dubai",Apartment,25.1965476,55.2695474
130,Luxurious 2BR Apartment in the heart of Dubai Downtown,2,3,"1,717 sqft","21,499","Opera Grand, Downtown Dubai, Dubai",Apartment,25.1937217,55.2712261
131,AMAZINGLY FURNISHED 1BHK || LARGE LAYOUT || CALL US NOW,1,2,"1,049 sqft","3,999","GMM Tower 1, JVC District 12, Jumeirah Village Circle (JVC), Dubai",Apartment,25.0537015,55.2118757
132,High Rise 2BR | Epic Marina Sea View,2,2,"1,304 sqft","12,700","LIV Residence, Dubai Marina, Dubai",Apartment,25.0811001,55.14067730000001
133,Brand New | Fully Furnished | Modern Community,Studio,1,370 sqft,"3,999","Living Garden II, JVC District 14, Jumeirah Village Circle (JVC), Dubai",Apartment,25.0601975,55.2093505
134,*NO COMMISSION* Vibrant and Contemporary 1 BR in Furjan. Available from 13th July 2023,1,2,832 sqft,"5,999","Farishta Azizi, Al Furjan, Dubai",Apartment,25.0241966,55.139183
135,AMAZING VIEW! Luxury 1 BR in Bluewaters Residence 5,1,1,"1,133 sqft","15,500","Apartment Building 5, Bluewaters Residences, Bluewaters Island, Dubai",Apartment,25.0792222,55.11966839999999
136,Elegantly Decorated 1 Bedroom Apartment| Brand New | Skyline View,1,1,794 sqft,"6,690","Bloom Towers, JVC District 10, Jumeirah Village Circle (JVC), Dubai",Apartment,25.065054,55.2057745
137,BRIGHT AND COZY | FULLY FURNISHED | BILLS INCLUDED,1,2,743 sqft,"15,000","One Park Avenue, Sobha Hartland, Dubai",Apartment,25.1784466,55.3086196
138,Exquisite Fully Furnished l View of Skyline and Burj Khalifa l Bills all Included!,1,2,706 sqft,"8,000","Binghatti Avenue, Al Jaddaf, Dubai",Apartment,25.2122955,55.3164952
139,Huge Apartment | 2 balconies | NO COMMISSION | Utility Bills Included,1,1,"1,004 sqft","5,500","European, Canal Residence West, Dubai Sports City, Dubai",Apartment,25.0381534,55.2210473
140,Beach Access | Spacious | Skyline View,2,2,"1,381 sqft","12,000","Sunrise Bay Tower 1, Sunrise Bay, Emaar Beachfront, Dubai Harbour, Dubai",Apartment,25.0967614,55.1394516
141,IMMEDIATE  MOVE- IN ! EXQUISITE LARGE FULLY FURNISHED 1BR WITH POOL VIEW IN JVC!,1,1,653 sqft,"5,999","Diamond Views III, JVC District 11, Jumeirah Village Circle (JVC), Dubai",Apartment,25.0622902,55.2178078
142,Luxury Apartment in Bloom Towers JVC | Utilities Included,1,1,668 sqft,"6,800","Bloom Towers, JVC District 10, Jumeirah Village Circle (JVC), Dubai",Apartment,25.065054,55.2057745
143,Superb Summer Offer I 5Min Walk to Marina Beach,Studio,1,360 sqft,"5,995","Studio One Tower, Dubai Marina, Dubai",Apartment,25.0691036,55.1289728
144,BOOK NOW! Stylish 1 BR in Marina Pinnacle,1,1,801 sqft,"5,900","Marina Pinnacle, Dubai Marina, Dubai",Apartment,25.0886968,55.1481894
145,*No Commission* Elegant and Contemporary Studio in Furjan. Available from 13th July 2023,Studio,1,398 sqft,"4,599","Farishta Azizi, Al Furjan, Dubai",Apartment,25.0241966,55.139183
146,Summer Limited Offer | Modern Studio | Best Amenities,Studio,1,389 sqft,"3,999","Miraclz Tower by Danube, Arjan, Dubai",Apartment,25.0583148,55.23891339999999
147,Newly Furnished 3 Bedroom Apartment in Creek Harbour,3,4,"1,708 sqft","15,499","Harbour Views 1, Harbour Views, Dubai Creek Harbour, Dubai",Apartment,25.2053316,55.3447823
148,Lovely 1BR Apartment in Jumeirah Village Circle,1,1,578 sqft,"6,999","Bloom Towers, JVC District 10, Jumeirah Village Circle (JVC), Dubai",Apartment,25.065054,55.2057745
149,Spacious STUDIO with Balcony Furnished -Free DEWA & Internet,Studio,1,389 sqft,"4,000","MAG 515, MAG 5 Boulevard, Dubai South, Dubai",Apartment,24.9512346,55.2300507
150,No Commission | Prime Location 1BHK | Fully Furnished | Free DEWA/WiFi,1,2,700 sqft,"6,999","Manchester Tower, Dubai Marina, Dubai",Apartment,25.0681802,55.1323932
151,Luxury 2 Bedroom in Business Bay @8999 With all bills,2,2,908 sqft,"8,999","Vera Residences, Business Bay, Dubai",Apartment,25.1868571,55.2829892
152,NO COMMISSION ! Free Bills ! Furnished 1bd Apartment near Metro Station,1,1,752 sqft,"5,500","Mag 214 Tower, JLT Cluster R, Jumeirah Lake Towers (JLT), Dubai",Apartment,25.077433,55.147214
153,"1 BHK, GULF OASIS HOTEL,SERVICED, NO COMMISSION",1,1,750 sqft,"6,000","Gulf Oasis Hotel Apartments, Barsha Heights (Tecom), Dubai",Hotel Apartment,25.094106,55.17715699999999
154,Summer Promotion | Modern Furnished | Jogging Track | High Floor,1,1,696 sqft,"5,999","Bloom Towers, JVC District 10, Jumeirah Village Circle (JVC), Dubai",Apartment,25.065054,55.2057745
155,City View | Weekly Cleaning | Bills Included,1,1,654 sqft,"8,950","The Pad, Business Bay, Dubai",Apartment,25.1848061,55.2818955
156,Brand New | Amazing Full Sea View | Bills Included,2,2,"1,287 sqft","13,000","Sunrise Bay Tower 1, Sunrise Bay, Emaar Beachfront, Dubai Harbour, Dubai",Apartment,25.0967614,55.1394516
157,BRAND-NEW ll SMART HOME ll LUXURY DESIGNED,2,3,"1,446 sqft","11,499","Millennium Binghatti Residences, Business Bay, Dubai",Apartment,25.1805314,55.2689479
158,Summer Deal | Studio in the Heart of Business Bay,Studio,1,456 sqft,"7,000","DAMAC Maison Majestine, Business Bay, Dubai",Apartment,25.186457,55.282055
159,Full Marina View / Luxury and Cosy Apartment,1,2,977 sqft,"20,000","Jumeirah Living Marina Gate, Marina Gate, Dubai Marina, Dubai",Apartment,25.0874245,55.1464733
160,FREE BEACH ACCESS at Fairmont The Palm | Golden Mile,2,2,"1,799 sqft","13,500","Golden Mile 5, Golden Mile, Palm Jumeirah, Dubai",Apartment,25.1076774,55.14628980000001
161,Charming | Elegant & Unique | Studio | Carson B,Studio,1,406 sqft,"4,798","Carson Tower B, Carson - The Drive, DAMAC Hills, Dubai",Apartment,25.0245455,55.2431504
162,Maison Privee - Spacious 1/Bed Apartment in Dubai Marina,1,2,733 sqft,"8,000","Sparkle Tower 3, Sparkle Towers, Dubai Marina, Dubai",Apartment,25.0714847,55.1321149
163,Stunning 2-Bedroom Apartment with Sea View,2,3,"1,199 sqft","12,000","La Rive Tower 1, La Rive, Port De La Mer, La Mer, Jumeirah, Dubai",Apartment,25.2397759,55.2543541
164,Summer Limited Offer | Children\'s Play Area | Divine,Studio,1,464 sqft,"3,499","Divine Residences, Arjan, Dubai",Apartment,25.0656864,55.2484337
165,LUXURIOUSLY FURNISHED STUDIO || READY TO MOVE IN || CALL US NOW,Studio,1,492 sqft,"4,999","Nicholas Residence, JVC District 12, Jumeirah Village Circle (JVC), Dubai",Apartment,25.0550125,55.2114463
166,Beach access! Modern 1BR in Fairmont North,1,1,"1,314 sqft","10,200","The Fairmont Palm Residence North, The Fairmont Palm Residences, Palm Jumeirah, Dubai",Apartment,25.1099215,55.1408733
167,Distinctive 1 Bedroom | Marina Quays | Newly Furnished,1,2,"1,113 sqft","11,500","Marina Quays West, Marina Quays, Dubai Marina, Dubai",Apartment,25.0767236,55.1368735
168,FULLY FURNISHED | READY UNIT | CHILLER FREE,1,1,770 sqft,"7,500","Creek Horizon Tower 2, Creek Horizon, Dubai Creek Harbour, Dubai",Apartment,25.2068836,55.3442211
169,"SUPERIOR 1 BHK,SERVICED, GULF OASIS HOTEL, NO COMMISSION",1,2,800 sqft,"6,500","Gulf Oasis Hotel Apartments, Barsha Heights (Tecom), Dubai",Hotel Apartment,25.094106,55.17715699999999
170,Close Nahkeel Mall / All Bills Included / 2mins To Tram,Studio,1,548 sqft,"8,000","Palm Views East, Palm Views, Palm Jumeirah, Dubai",Apartment,25.1170671,55.1364276
171,Summer Offer! Upscale & Stylish 2BR in Dubai Hills,2,3,"1,004 sqft","15,000","Executive Residences 1, Executive Residences, Dubai Hills Estate, Dubai",Apartment,25.1118678,55.24642009999999
172,"1br Apartment, Marina Pinnacle, Dubai Marina",1,1,791 sqft,"7,500","Marina Pinnacle, Dubai Marina, Dubai",Apartment,25.0886968,55.1481894
173,"SPACIOUS 1 BEDROOM IN JVC, BRAND NEW AND FULLY FURNISHED",1,2,822 sqft,"4,899","Laya Mansion, JVC District 15, Jumeirah Village Circle (JVC), Dubai",Apartment,25.0559406,55.2011756
174,Breathtaking one Bedroom across Dubai Mall | Utilities Included,1,2,900 sqft,"8,500","Upper Crest (Burjside Terrace), Downtown Dubai, Dubai",Apartment,25.1949849,55.2784141
175,City View | Weekly Cleaning | Bills Included,2,3,"1,693 sqft","18,670","The Onyx Tower 2, The Onyx, The Greens, Dubai",Apartment,25.0967745,55.1691282
176,Fully Furnished Studio in Sports City | All Bills Included!,Studio,1,379 sqft,"4,300","Giovanni Boutique Suites, Dubai Sports City, Dubai",Apartment,25.0320227,55.222943
177,Executive King Studio in Business Bay,Studio,1,602 sqft,"8,999","West Wharf, Business Bay, Dubai",Apartment,25.1809863,55.26502869999999
178,High floor! | Stylish 1BR in Marina Pinnacle,1,1,761 sqft,"6,000","Marina Pinnacle, Dubai Marina, Dubai",Apartment,25.0886968,55.1481894
179,Sublime 1 bedroom | Beach Vista | All Bills Included,1,1,711 sqft,"13,000","Beach Vista 2, Beach Vista, Emaar Beachfront, Dubai Harbour, Dubai",Apartment,25.0981282,55.1397625
180,Newly Furnished Studio | IMPZ | All Bills Included,Studio,1,495 sqft,"6,500","Lago Vista A, Lago Vista, Dubai Production City (IMPZ), Dubai",Apartment,25.0317773,55.19002270000001
181,SUMMER OFFER/ 2 MONTH STAY,2,2,"1,050 sqft","14,999","Creek Gate Tower 1, Creek Gate, Dubai Creek Harbour, Dubai",Apartment,25.2064112,55.3471756
182,Private Beach Access | Sea View | Brand New Furnishing,3,4,"2,301 sqft","15,500","Al Bateen Towers, The Walk, Jumeirah Beach Residence (JBR), Dubai",Apartment,25.072367,55.127675
183,VERA | Newly furnished with D-Marin Business Bay View,2,2,901 sqft,"9,250","Vera Residences, Business Bay, Dubai",Apartment,25.1868571,55.2829892
184,NEW UNIT | Elegant 2 BR | Fairmont South,2,2,"1,723 sqft","15,500","The Fairmont Palm Residence South, The Fairmont Palm Residences, Palm Jumeirah, Dubai",Apartment,25.1099215,55.1408733
185,No Commission I Kitchen I Metro I Free Bills I Free Cleaning,1,1,602 sqft,"4,899","First Central Hotel Apartments, Barsha Heights (Tecom), Dubai",Apartment,25.0977223,55.1745919
186,3 NIGHTS FREE ON 2 MONTHS BOOKING|BRAND NEW STUDIO IN MEYDAN|FULLY FURNISHED|BILLS INCLUDED,Studio,1,300 sqft,"5,999","Azizi Riviera 10, Azizi Riviera, Meydan One, Meydan City, Dubai",Apartment,25.171143,55.3024098
187,ASTONISHING STUDIO || AMAZINGLY FURNISHED || CONTACT US NOW,Studio,1,510 sqft,"4,299","Beverly Residence, JVC District 13, Jumeirah Village Circle (JVC), Dubai",Apartment,25.0502178,55.21352760000001
188,Brand new furniture | Excellent location | All Bills Included  | No Commission,2,3,"1,652 sqft","17,000","Marina Arcade Tower, Dubai Marina, Dubai",Apartment,25.0901262,55.1503297
189,Brand New | Delightful Studio | All Bill Included,Studio,1,443 sqft,"6,498","AG Tower, Business Bay, Dubai",Apartment,25.1796099,55.269205
190,Infront of Metro | Fully Furnished | Spacious,Studio,1,429 sqft,"6,198","Marina Diamond 3, Marina Diamonds, Dubai Marina, Dubai",Apartment,25.0815572,55.1472431
191,Community View | Weekly Cleaning | Bills Included,1,2,"1,342 sqft","12,000","Shams 1, Shams, Jumeirah Beach Residence (JBR), Dubai",Apartment,25.0769441,55.1341346
192,PRIME LOCATION! Beach access! 2BR+maid in Fairmont,2,2,"2,163 sqft","15,500","The Fairmont Palm Residence North, The Fairmont Palm Residences, Palm Jumeirah, Dubai",Apartment,25.1099215,55.1408733
193,Gorgeous Outlook | Guest Suite | Complete Furnishings | Move-In Ready,2,3,"1,531 sqft","28,999","Apartment Building 2, Bluewaters Residences, Bluewaters Island, Dubai",Apartment,25.0792222,55.11966839999999
194,3 NIGHTS FREE ON 2 MONTHS BOOKING|Captivating 1 bedroom in Business Bay | Canal view |All Bills included,1,2,669 sqft,"7,999","Merano Tower, Business Bay, Dubai",Apartment,25.1848281,55.2603221
195,Fully Serviced | Luxury & Comfort | Loreto 2A,Studio,1,486 sqft,"5,000","Loreto 2A, Loreto A, Loreto, DAMAC Hills, Dubai",Apartment,25.0160115,55.2544323
196,One Bedroom Apartment with Marina view,1,2,856 sqft,"11,999","Jumeirah Gate Tower 1, The Address Residences Jumeirah Resort and Spa, Jumeirah Beach Residence (JBR), Dubai",Apartment,25.0769441,55.1341346
197,Exclusive Luxury 3 Bedroom + Maid room l Balcony view with Burj Khalifa and Dubai Fountain view,4,4,"1,821 sqft","41,299","Boulevard Point, Downtown Dubai, Dubai",Apartment,25.1933096,55.28091870000001
198,BRAND NEW STUDIO || AMAZINGLY FURNISHED || CONTACT US NOW !!!,Studio,1,417 sqft,"4,299","Beverly Residence, JVC District 13, Jumeirah Village Circle (JVC), Dubai",Apartment,25.0502178,55.21352760000001
199,Summer Offer !NEWLY FURNISHED ! FREE BILLS ! Furnished 1BR  Apartment in Beach Vista,1,2,747 sqft,"8,000","Beach Vista 2, Beach Vista, Emaar Beachfront, Dubai Harbour, Dubai",Apartment,25.0981282,55.1397625
200,No Commission |  Trending and Cozy 2BHK | Fully Furnished | Free Wifi/DEWA,2,3,"1,441 sqft","11,499","Millennium Binghatti Residences, Business Bay, Dubai",Apartment,25.1805314,55.2689479
201,BIG OFFER!!! FOR IMMEDIATE BOOKING! AMAZING AND COZY 1 BEDROOM  APARTMENT IN THE HEART OF JVC,1,2,987 sqft,"5,875","Emirates Gardens, JVC District 12, Jumeirah Village Circle (JVC), Dubai",Apartment,25.0545988,55.2128478
202,ALL BILLS INCLUDED || Coastal Retreat:2 bd Apt Breathtaking Sea View JBR,2,2,"1,332 sqft","11,999","Sadaf 6, Sadaf, Jumeirah Beach Residence (JBR), Dubai",Apartment,25.0809595,55.1373993
203,Stunning Studio in West Wharf Tower|Business Bay,Studio,1,602 sqft,"6,499","West Wharf, Business Bay, Dubai",Apartment,25.1809863,55.26502869999999
204,All BILLS  Included || Designer 1 bedroom next to Burj al Arab and the beach,1,1,768 sqft,"9,500","Lamtara Building 3, Lamtara, Madinat Jumeirah Living, Umm Suqeim, Dubai",Apartment,25.1330986,55.183466
205,Summer Promotion | Specious Furnished | Family-Oriented | Modern Amenities,4,4,"2,172 sqft","14,999","Elite Business Bay Residence, Business Bay, Dubai",Apartment,25.1799797,55.2659768
206,MS Holiday Homes Premier 2 Bedroom Summer Savings Book for one month get 5% discount on next Perfect for High-Profile client  Stays in Vera Residences,2,2,906 sqft,"8,400","Vera Residences, Business Bay, Dubai",Apartment,25.1868571,55.2829892
207,Dubai Hills | 1 bedroom | Furnished & All Bills Included,1,1,646 sqft,"7,500","Park Heights 1, Park Heights, Dubai Hills Estate, Dubai",Apartment,25.1129375,55.24636779999999
208,Summer Offer | Swimming Pool | Bloom Towers,Studio,1,394 sqft,"3,999","Bloom Towers, JVC District 10, Jumeirah Village Circle (JVC), Dubai",Apartment,25.065054,55.2057745
209,Luxury Living on Bluewaters Dubai,1,2,"1,307 sqft","18,000","Apartment Building 4, Bluewaters Residences, Bluewaters Island, Dubai",Apartment,25.0792222,55.11966839999999
210,NO COMMISSION ! Fantastic One Bed in Prime Location of Marina| FREE UTILITY BILLS!,1,1,846 sqft,"6,000","Marina Diamond 4, Marina Diamonds, Dubai Marina, Dubai",Apartment,25.0802904,55.1453144
211,Luke Stays - Amna Tower,2,3,"1,511 sqft","15,000","Amna, Al Habtoor City, Business Bay, Dubai",Apartment,25.1841785,55.254316
212,AMAZING FULLY FURNISHED 1BHK || CONTACT US NOW,1,2,889 sqft,"4,900","Laya Mansion, JVC District 15, Jumeirah Village Circle (JVC), Dubai",Apartment,25.0559406,55.2011756
213,Modern 1BR w/ Resort Amenities in Production City,1,2,762 sqft,"5,800","Afnan 5, Afnan District, Midtown, Dubai Production City (IMPZ), Dubai",Apartment,25.0275938,55.1798464
214,Maison Privee - Tranquil Apt w/ Mesmerizing Views Cls to Marina,2,2,"1,489 sqft","17,500","Banyan Tree Residences, Jumeirah Lake Towers (JLT), Dubai",Apartment,25.0778793,55.1563532
215,High Floor | Fully Equipped Kitchen | Carson A,Studio,1,406 sqft,"4,998","Carson Tower A, Carson - The Drive, DAMAC Hills, Dubai",Apartment,25.0254132,55.24445960000001
216,Spacious 1BR l Luxurious Ambiance l Business Bay | AVANTI 605,1,1,682 sqft,"7,000","Avanti Tower, Business Bay, Dubai",Apartment,25.1766978,55.27113139999999
217,Fully Furnished | Gym & Pool | Modern Community,1,2,983 sqft,"6,499","Laya Residences, JVC District 10, Jumeirah Village Circle (JVC), Dubai",Apartment,25.0661451,55.208794
218,Summer Limited Offer | Modern Amenities | Convenient Location,1,2,939 sqft,"6,499","Golden Wood Views, JVT District 3, Jumeirah Village Triangle (JVT), Dubai",Apartment,25.0401649,55.1824056
219,Luxury | Brand New | Furnished  |,Studio,1,478 sqft,"5,500","The Icon Casa, JVC District 11, Jumeirah Village Circle (JVC), Dubai",Apartment,25.0617417,55.2123317
220,Ready To Move Deal ! Amazing Fountain View High Pixel ! Higher Floor ! Luxury Living Furnished 1 Bedroom Apartment ! No Commission,1,1,900 sqft,"9,396","Standpoint Tower 1, Standpoint Towers, Downtown Dubai, Dubai",Apartment,25.1937032,55.2725735
221,BRAND NEW ll 1BHK MODERN FURNISHED ll BALCONY,1,2,710 sqft,"7,499","The Residences at Business Central, Business Bay, Dubai",Apartment,25.1894021,55.2892571
222,CHIC STUDIO IN ARJAN| BILLS INCLUDED,Studio,1,433 sqft,"4,499","Bella Rose, Dubai Science Park, Dubai",Apartment,25.070378,55.2452482
223,HIGH FLOOR | Elegant 1 BR | Elite Residence,1,1,959 sqft,"6,200","Elite Residence, Dubai Marina, Dubai",Apartment,25.0895735,55.1478445
224,Capacious Stylish 1BHK | Fully Furnished | No Commission,1,2,939 sqft,"8,999","DAMAC Towers by Paramount Hotels and Resorts, Business Bay, Dubai",Apartment,25.1831647,55.272887
225,Stylish Apartment across the beach,1,2,700 sqft,"8,000","Bay Central West, Bay Central, Dubai Marina, Dubai",Apartment,25.0785015,55.1373454
226,Full Sea View | The 1 JBR | All Bills Included,3,4,"2,601 sqft","40,000","1 JBR, Jumeirah Beach Residence (JBR), Dubai",Apartment,25.0769441,55.1341346
227,Corner high floor - 1br Palm Tower - Breathtaking,1,2,"1,085 sqft","20,000","The Palm Tower, Palm Jumeirah, Dubai",Apartment,25.1137853,55.1399566
228,Modern and Elegantly l Family Friendly l All Bills Included,2,3,"2,006 sqft","19,000","Laguna Movenpick Tower, JLT Cluster A, Jumeirah Lake Towers (JLT), Dubai",Apartment,25.065721,55.1381376
229,SMART HOME ll ZERO COMMISSION ll ELEGANT,1,2,694 sqft,"7,999","Binghatti Creek, Al Jaddaf, Dubai",Apartment,25.2123114,55.3191168
230,GREAT OFFER! 1 BR in Park Island | Bonaire Tower,1,1,909 sqft,"6,700","Bonaire Tower, Park Island, Dubai Marina, Dubai",Apartment,25.0820935,55.1423689
231,Spacious STUDIO with Balcony Furnished -Free DEWA & Internet,Studio,1,442 sqft,"4,400","Celestia B, Celestia, Residential District, Dubai South, Dubai",Apartment,24.9392775,55.2175642
232,Premium Fully Furnished | High Floor | Ready To Move,1,2,821 sqft,"6,999","AG Tower, Business Bay, Dubai",Apartment,25.1796099,55.269205
233,Unrivalled 2 bedroom | Marina View | All Bills Included,2,3,"1,231 sqft","17,000","Marina Gate 2, Marina Gate, Dubai Marina, Dubai",Apartment,25.0867931,55.1475512
234,Burj Khalifa View | 3 BR + Maid apartment in OPERA GRAND,3,3,"2,041 sqft","25,000","Opera Grand, Downtown Dubai, Dubai",Apartment,25.1937217,55.2712261
235,Fully Furnished 1 Bedroom Apartment | Manhattan Towers JVC,1,1,851 sqft,"6,000","The Manhattan, JVC District 10, Jumeirah Village Circle (JVC), Dubai",Apartment,25.0687692,55.2074089
236,BRAND NEW 1 BR IN MEYDAN| ALL BILLS INCLUDED.,1,1,492 sqft,"6,999","Sobha Creek Vistas Tower A, Sobha Creek Vistas, Sobha Hartland, Dubai",Apartment,25.178171,55.31345630000001
237,Brand New Furnished | 1 BR Apartment | Expo 2020 Dubai South,1,2,"1,066 sqft","6,500","Celestia A, Celestia, Residential District, Dubai South, Dubai",Apartment,25.2048493,55.2707828
238,Bright and Spacious l Family SetUp Apartment with view of Palm Beach,3,4,"1,510 sqft","14,000","Sulafa Tower, Dubai Marina, Dubai",Apartment,25.08946,55.14892769999999
239,Fully Furnished | Studio | Burj Khalifa View,Studio,1,361 sqft,"5,999","Farhad Azizi Residence, Dubai Healthcare City Phase 2, Al Jaddaf, Dubai",Apartment,25.2090203,55.315404
240,1 BR Cozy apartment in Damac Prive with Canal View in Business Bay,1,1,982 sqft,"9,000","DAMAC Maison Prive, Business Bay, Dubai",Apartment,25.1843104,55.2755156
241,Cozy Studio in Anantara North | All Inclusive,Studio,1,690 sqft,"8,000","Anantara Residences - North, Anantara Residences, Palm Jumeirah, Dubai",Apartment,25.1313252,55.1529958
242,Luxurious 4 BDR + Maid | Opera Grand | Burj Khalifa View,4,6,"2,985 sqft","55,000","Opera Grand, Downtown Dubai, Dubai",Apartment,25.1937217,55.2712261
243,Infinity Pool with Burj Khalifa View | 2 BR apartment residence,2,2,"1,320 sqft","12,499","Paramount Hotel & Residences, Business Bay, Dubai",Apartment,25.1832074,55.2728756
244,Relaxing Haven w/ Unparalleled Burj Khalifa Views,2,2,"1,622 sqft","14,000","South Ridge 2, South Ridge, Downtown Dubai, Dubai",Apartment,25.1864081,55.2772952
245,No Commission | Excellent location I All Bills Included,Studio,1,407 sqft,"6,000","Bayz by Danube, Business Bay, Dubai",Apartment,25.1808454,55.2792744
246,Azizi Plaza Amazing Studio,Studio,1,384 sqft,"5,299","Azizi Plaza, Al Furjan, Dubai",Apartment,25.0219527,55.1393223
247,All Utilities Bills Included | Furnished Studio | Maple 2,Studio,1,470 sqft,"3,900","Maple 2, Emirates Gardens 2, JVC District 14, Jumeirah Village Circle (JVC), Dubai",Apartment,25.0488228,55.2050756
248,City View | Weekly Cleaning | Bills Included,2,2,"1,143 sqft","9,980","Bloom Tower A, Bloom Towers, JVC District 10, Jumeirah Village Circle (JVC), Dubai",Apartment,25.0666071,55.202942
249,LUXURY UPGRADED SIGNATURE 7 BDR villa in PALM JUMEIRAH,7,8,"13,003 sqft","320,000","Signature Villas Frond M, Signature Villas Palm Jumeirah, Palm Jumeirah, Dubai",Villa,25.113357,55.1243023
250,Summer Promotion | Skyscraper | Modern Furnished | Family-Oriented,1,1,674 sqft,"6,499","Binghatti Avenue, Al Jaddaf, Dubai",Apartment,25.2122955,55.3164952
251,Sea view| Swimming pool| Private Beach|  Palm Jumeirah,5,6,"6,800 sqft","70,000","Garden Homes Frond B, Garden Homes Palm Jumeirah, Palm Jumeirah, Dubai",Villa,25.1221083,55.1402132
252,"SUMMER OFFER: Book for 1 month, GET 2 free nights stay- 2 bedrooms, Collective 2.0",2,1,722 sqft,"11,999","Collective 2.0, Dubai Hills Estate, Dubai",Apartment,25.114898,55.24761489999999
253,FREE TICKETS SUMMER SALE: Extravagant 1BR in Downtown | NO COMMISSION,1,1,767 sqft,"11,000","Act Two, Act One | Act Two Towers, Opera District, Downtown Dubai, Dubai",Apartment,25.1928405,55.27134230000001
254,1BR MODERN SPACIOUS FULLY FURNISHED | MARINA|AVAIL NOW,1,1,845 sqft,"6,500","Marina Pinnacle, Dubai Marina, Dubai",Apartment,25.0886968,55.1481894
255,Ultimate Luxury Beachfront Apartment | Utilities Included,3,4,"1,940 sqft","55,000","Beach Vista 2, Beach Vista, Emaar Beachfront, Dubai Harbour, Dubai",Apartment,25.0981282,55.1397625
256,No Commission |  Exquisite and Modern Studio | Fully Furnished | Free DEWA/WiFi,Studio,1,451 sqft,"4,299","Hanover Square, JVC District 10, Jumeirah Village Circle (JVC), Dubai",Apartment,25.0681655,55.2046907
257,Elegant Studio | Simplicity with Luxury,Studio,1,469 sqft,"4,499","DAMAC Ghalia, JVC District 18, Jumeirah Village Circle (JVC), Dubai",Apartment,25.0531125,55.1989628
258,UNIQUE & COSY 2BR + SOFA BED|FURNISHED|AL SUFUOH|AVAIL NOW,2,2,"1,322 sqft","11,500","J8, Al Sufouh 1, Al Sufouh, Dubai",Apartment,25.1086271,55.1780313
259,Fully Serviced | Fully Furnished | Villa Myra JVC,Studio,1,603 sqft,"4,497","Villa Myra, JVC District 15, Jumeirah Village Circle (JVC), Dubai",Apartment,25.0581342,55.1993301
260,Brand New | Delightful | Canal View | Fully Furnished,Studio,1,567 sqft,"7,000","AG Tower, Business Bay, Dubai",Apartment,25.1796099,55.269205
261,Unique | Stylish | Peaceful | Luxury | Studio,Studio,1,406 sqft,"4,999","Carson Tower A, Carson - The Drive, DAMAC Hills, Dubai",Apartment,25.0254132,55.24445960000001
262,Summer Deal | Ready to Move | All Bill | 12 Cheque,Studio,1,506 sqft,"6,498","Elite Business Bay Residence, Business Bay, Dubai",Apartment,25.1799797,55.2659768
263,STUNNINGLY 2BR FULLY FURNISHED|FULL LAKE VIEW,2,2,954 sqft,"13,500","Marina View Tower A, Marina View Tower, Dubai Marina, Dubai",Apartment,25.0792439,55.1427251
264,Summer Offer | Community View | Next to Circle Mall,1,1,"1,226 sqft","6,499","Diamond Views III, JVC District 11, Jumeirah Village Circle (JVC), Dubai",Apartment,25.0622902,55.2178078
265,Bright & Lovely One BR Apt | Next to Dubai Mall,1,1,951 sqft,"29,999","The Address Dubai Mall, Downtown Dubai, Dubai",Apartment,25.1998429,55.277452
266,Spacious Marina Two Bedroom,2,3,"1,269 sqft","14,000","Marina Tower, Dubai Marina, Dubai",Apartment,25.08417,55.1443604
267,2BR Apartment | Downtown Dubai,2,2,887 sqft,"18,000","Standpoint Tower 1, Standpoint Towers, Downtown Dubai, Dubai",Apartment,25.1937032,55.2725735
268,Bloom Studio | Luxury Meets Leisure,Studio,1,380 sqft,"4,499","Bloom Tower B, Bloom Towers, JVC District 10, Jumeirah Village Circle (JVC), Dubai",Apartment,25.0671171,55.2034265
269,Spacious with Balcony One Bedroom Apartment with FREE Internet and DEWA- No Commission!,1,2,937 sqft,"4,600","The Pulse Residence 3, The Pulse Residence, The Pulse, Residential District, Dubai South, Dubai",Apartment,24.9392775,55.2175642
270,NO COMMISSION| 2BR with Palm View | Private Beach| Dubai Marina,2,2,"1,164 sqft","19,999","Beach Vista 1, Beach Vista, Emaar Beachfront, Dubai Harbour, Dubai",Apartment,25.0981282,55.1397625
271,1BR Apartment  Large Balcony JVC | All Bills Included,1,1,980 sqft,"8,500","Regent Court, JVC District 14, Jumeirah Village Circle (JVC), Dubai",Apartment,25.053366,55.2061469
272,Promotion Rate | Modern Furnishing | All Bills Included,1,1,493 sqft,"6,500","Sobha Creek Vistas, Sobha Hartland, Dubai",Apartment,25.178171,55.31345630000001
273,FULLY UPGRADED| FACING THE SEA| ALL BILLS INCLUDED,1,2,"1,300 sqft","14,000","Golden Mile 8, Golden Mile, Palm Jumeirah, Dubai",Apartment,25.1112,55.1414133
274,"Maison Privee - Fully Upgraded Luxury 5BR Villa w/Dramatic Vw Private Beach, Pool",5,6,"13,411 sqft","120,000","Signature Villas Frond K, Signature Villas Palm Jumeirah, Palm Jumeirah, Dubai",Villa,25.1189429,55.1217426
275,3 NIGHTS FREE ON 2 MONTHS BOOKING|BRAND NEW STUDIO IN IMPZ|STYLISH INTERIORS |BILLS INCLUDED,Studio,1,442 sqft,"4,799","MYKA Residence, Dubai Production City (IMPZ), Dubai",Apartment,25.0316224,55.1930236
276,Fully Furnished | Pool & Gym Access | Loreto 2A,Studio,1,500 sqft,"5,000","Loreto 2A, Loreto A, Loreto, DAMAC Hills, Dubai",Apartment,25.0160115,55.2544323
277,SPACIOUS FURNISHED STUDIO IN ENGLAND CLUSTER,Studio,1,500 sqft,"2,499","Y-17, England Cluster, International City, Dubai",Apartment,25.1721427,55.4020829
278,Direct Access to Dubai Mall | High End Three BR Apt,3,2,"1,981 sqft","90,000","The Address Dubai Mall, Downtown Dubai, Dubai",Apartment,25.1998429,55.277452
279,Marvelous Apartment | Sea View | + Maids Room,2,4,"1,659 sqft","25,000","Apartment Building 6, Bluewaters Residences, Bluewaters Island, Dubai",Apartment,25.0792222,55.11966839999999
280,Amazing Offer | BRAND NEW 1 BR  APARTMENT | No Commission,1,2,848 sqft,"8,999","29 Boulevard 1, 29 Boulevard, Downtown Dubai, Dubai",Apartment,25.1918989,55.2727574
281,No Commission I Kitchen I Metro I Free Bills I Free Cleaning,Studio,1,344 sqft,"4,082","First Central Hotel Apartments, Barsha Heights (Tecom), Dubai",Apartment,25.0977223,55.1745919
282,Summer Offer l Lux 1BR Home near Downtown with Swimming Pool,1,1,947 sqft,"8,899","Tower D, DAMAC Towers by Paramount Hotels and Resorts, Business Bay, Dubai",Apartment,25.1831647,55.272887
283,"Exceptional 1BR in Shoreline, Palm Jumeirah (Rates valid for current month only*)",1,1,"1,145 sqft","9,000","Jash Falqa, Shoreline Apartments, Palm Jumeirah, Dubai",Apartment,25.1087143,55.14840840000001
284,Ideal Location in Marina - All Amenities Close By,2,2,"1,310 sqft","12,400","Princess Tower, Dubai Marina, Dubai",Apartment,25.0887804,55.14689509999999
285,Best Price | Near Burj Khalifa | 1 Bed,1,2,"1,091 sqft","11,500","South Ridge 5, South Ridge, Downtown Dubai, Dubai",Apartment,25.186938,55.27892319999999
286,"Remarkable Value. Unbeatable Location. Right Around the Corner, Near Everywhere You Want to Be.",Studio,1,500 sqft,"2,499","P-24, France Cluster, International City, Dubai",Apartment,25.1620878,55.403703
287,Modern Apartment Across Dubai Mall,1,2,830 sqft,"8,500","Burj Al Nujoom, Downtown Dubai, Dubai",Apartment,25.1910236,55.2822663
288,Incredible Views From This Classy Apt With Terrace,2,3,"1,639 sqft","13,999","BLVD Heights Tower 1, BLVD Heights, Downtown Dubai, Dubai",Apartment,25.1925587,55.26953959999999
289,Dubai Hills | Fully Furnished 1-bedroom | Bills Included,1,1,646 sqft,"8,000","Park Heights 1, Park Heights, Dubai Hills Estate, Dubai",Apartment,25.1129375,55.24636779999999
290,HOT DEAL | LUXURIOUS STUDIO | HIGH QUALITY | FULLY FURNISHED,Studio,1,398 sqft,"3,999","Beverly Residence, JVC District 13, Jumeirah Village Circle (JVC), Dubai",Apartment,25.0502178,55.21352760000001
291,Posh and Cozy | Full Marina View | All Bills Included,2,3,"1,480 sqft","17,000","Fairfield Tower, Park Island, Dubai Marina, Dubai",Apartment,25.0816782,55.142024
292,"Luxury Apartment |Newly furnished | Price incl all bills || Dubai Marina 52|42 , Full sea view",2,2,"1,135 sqft","17,000","5242 Tower 1, 5242 Towers, Dubai Marina, Dubai",Apartment,25.0805422,55.1403426
293,Stylish 1 bedroom | Fully Furnished | All Bills Included,1,2,957 sqft,"9,450","Tajer Residence, The Old Town Island, Downtown Dubai, Dubai",Apartment,25.1958043,55.2776775
294,DEAL OF THE MONTH | One Bedroom Apartment Ghaya Grand Residence,1,2,722 sqft,"4,999","Ghaya Grand Hotel, Dubai Production City (IMPZ), Dubai",Apartment,25.0339919,55.203575
295,Elegant Furnished Studio || Near Bus Station || Pay Monthly Rent || Ready To Move,Studio,1,484 sqft,"2,490","X-10, England Cluster, International City, Dubai",Apartment,25.1736832,55.4049437
296,Exceptional Two Bedroom Apartment at Dubai Hills Estate,2,1,732 sqft,"11,000","Collective 2.0, Dubai Hills Estate, Dubai",Apartment,25.114898,55.24761489999999
297,Available Monthly Burj Royale Downtown,1,1,635 sqft,"13,000","Burj Royale, Downtown Dubai, Dubai",Apartment,25.1916802,55.2801754
298,Flexible Terms | Modern & Stylish | Marina View,2,2,835 sqft,"12,000","Studio One Tower, Dubai Marina, Dubai",Apartment,25.0691036,55.1289728
299,Fully Furnished | Ready to Move | Brand New Studio | Amazing Finishing,Studio,1,493 sqft,"6,499","Elite Business Bay Residence, Business Bay, Dubai",Apartment,25.1799797,55.2659768
300,4 Bedroom in Sky View | Modern Furnished | Best Amenities,4,5,"2,537 sqft","96,998","The Address Sky View Tower 2, The Address Residence Sky View, Downtown Dubai, Dubai",Apartment,25.2016993,55.2712869
301,SUPER Deal | Standard Hotel Room | 30 Nights Deal,Studio,1,377 sqft,"4,950","Radisson Dubai DAMAC Hills, DAMAC Hills, Dubai",Hotel Apartment,25.0187618,55.2463001
302,COZY STUDIO II FULL FURNISHED II MONTHLY PAYMENT,Studio,1,463 sqft,"2,499","P-05, France Cluster, International City, Dubai",Apartment,25.1605031,55.40417410000001
303,Private Beach Access | Brand New Furnishings | Bills Included,2,3,"1,610 sqft","11,990","Al Bateen Towers, The Walk, Jumeirah Beach Residence (JBR), Dubai",Apartment,25.072367,55.127675
304,BRAND NEW 1 BR APARTMENT | Amazing Offer | 29  Boulevard 1,1,2,848 sqft,"9,000","29 Boulevard 1, 29 Boulevard, Downtown Dubai, Dubai",Apartment,25.1918989,55.2727574
305,Summer Offer | Lux  Upgraded 1BR near to  Dubai Mall,1,2,637 sqft,"9,999","Burj Royale, Downtown Dubai, Dubai",Apartment,25.1916802,55.2801754
306,Summer Promotion | Modern Furnished | Swimming Pool | Family-Oriented,1,1,934 sqft,"6,999","Elite Business Bay Residence, Business Bay, Dubai",Apartment,25.1799797,55.2659768
307,Summer Promotion | Modern Furnished | Fitness Club | Family-Oriented,4,4,"2,191 sqft","14,999","Elite Business Bay Residence, Business Bay, Dubai",Apartment,25.1799797,55.2659768
308,Brand New | Luxurious Furnished | Best Price |  Including All Bills,Studio,1,450 sqft,"4,499","Bab Alqarya Tower, JVC District 11, Jumeirah Village Circle (JVC), Dubai",Apartment,25.0617417,55.2123317
309,No Commission | Spacious and Bright Studio | Fully Furnished | Free DEWA/WiFi,Studio,1,450 sqft,"5,299","Waves Tower, Business Bay, Dubai",Apartment,25.1835916,55.28402
310,Summer Limited Offer | Modern Amenities | Family Oriented,2,3,"1,342 sqft","8,499","Elite Business Bay Residence, Business Bay, Dubai",Apartment,25.1799797,55.2659768
311,ELEGANT STUDIO // FULLY FURNISHED // BUSINESS BAY,Studio,1,479 sqft,"5,499","DAMAC Maison Majestine, Business Bay, Dubai",Apartment,25.186457,55.282055
312,Lavish Studio // Fully Furnished // Damac Prive,Studio,1,372 sqft,"5,999","DAMAC Maison Prive, Business Bay, Dubai",Apartment,25.1843104,55.2755156
313,Marina View | Weekly Cleaning | Refurbished,2,3,"1,558 sqft","16,110","Attessa, Marina Promenade, Dubai Marina, Dubai",Apartment,25.0754273,55.13374659999999
314,Modern and Stylish 2 BR in Business Bay | All Bills Included,2,2,901 sqft,"9,998","Vera Residences, Business Bay, Dubai",Apartment,25.1868571,55.2829892
315,BRAND NEW LUXURIOUS STUDIO IN SPORTS CITY| CANAL VIEWS|BILLS INCLUDED,Studio,1,402 sqft,"4,999","Hera Tower, Dubai Sports City, Dubai",Apartment,25.0403885,55.2225976
316,Lovely Studio Apartment with an amazing view,Studio,1,440 sqft,"6,500","MAG 318, Business Bay, Dubai",Apartment,25.1905143,55.2830458
317,Exclusive Brandnew 1BR Apartment in 1Residences - Al Kifaf l Balcony view with Iconic Sheikh Zayed picture and city view,1,2,924 sqft,"7,999","1 Residences, Wasl 1, Al Kifaf, Bur Dubai, Dubai",Apartment,25.2327163,55.2954647
318,"Luxurious 2BR+Maids | Free Beach, Pool | Full Sea View",2,4,"2,193 sqft","20,000","Balqis Residence Block B, Balqis Residence, Kingdom Of Sheba, Palm Jumeirah, Dubai",Apartment,25.1201405,55.1103761
319,BRAND NEW 1+STUDY| UPGRADED |BILLS INCLUDED| 2 NIGHT FREE,1,1,645 sqft,"6,998","Hartland Waves, Sobha Hartland, Dubai",Apartment,25.1754394,55.3091971
320,Premium 3BR+Maids | Balqis Residence | Full Sea+City View,3,5,"2,754 sqft","22,000","Balqis Residence, Kingdom Of Sheba, Palm Jumeirah, Dubai",Apartment,25.1201405,55.1103761
321,Luxury and Newly Furnished with Amazing View l All bills included,2,3,"1,511 sqft","15,000","Amna, Al Habtoor City, Business Bay, Dubai",Apartment,25.1841785,55.254316
322,Brand New | High Floor | Water View,2,3,"1,274 sqft","16,000","J One, Business Bay, Dubai",Apartment,25.1861077,55.2833631
323,Furnished 2 BR in Al Barsha | Al Murad Tower,2,2,"1,113 sqft","8,300","Al Murad Tower, Al Barsha 1, Al Barsha, Dubai",Apartment,25.1135583,55.2013255
324,Gorgeous 2 BR mid floor Holiday Home in Downtown,2,3,"1,600 sqft","16,000","Boulevard Crescent Tower 2, Boulevard Crescent Towers, Downtown Dubai, Dubai",Apartment,25.1913845,55.2712093
325,"Amazing & Spacious- Family oriented I 1BHK I Fully Furnished ( without bills , Long Stay Offer )",1,2,999 sqft,"4,899","Al Zain Residence, JVC District 14, Jumeirah Village Circle (JVC), Dubai",Apartment,25.0526112,55.2061688
326,LUXURIOUSLY FURNISHED STUDIO || READY TO MOVE IN || CALL US NOW,Studio,1,511 sqft,"4,999","Nicholas Residence, JVC District 12, Jumeirah Village Circle (JVC), Dubai",Apartment,25.0550125,55.2114463
327,GREAT OFFER || FULLY FURNISHED || MODERN DESIGN,1,2,706 sqft,"6,799","Binghatti Avenue, Al Jaddaf, Dubai",Apartment,25.2122955,55.3164952
328,Arch Tower ! Lake View ! Brand New ! Near Metro ! Cluster G,1,2,823 sqft,"7,999","Dubai Arch Tower, JLT Cluster G, Jumeirah Lake Towers (JLT), Dubai",Apartment,25.0715253,55.1437456
329,Fully Furnished 2BR in Dubai Marina | 5242 Towers,2,2,"1,184 sqft","11,500","5242 Towers, Dubai Marina, Dubai",Apartment,25.0866657,55.150092
330,NEW UNIT! Spacious 2 BR | Safeer Tower 1,2,2,"1,580 sqft","8,900","Safeer Tower 1, Business Bay, Dubai",Apartment,25.1771361,55.2710581
331,No Commission | Dubai Marina 1BHK | Fully Furnished | Free DEWA/WiFi,1,1,893 sqft,"7,250","Safeer Tower, Dubai Marina, Dubai",Apartment,25.0783206,55.1418324
332,Summer Promotion | Canal View | Modern Furnished | Family-Oriented,3,2,"1,666 sqft","14,999","Creek Rise 2 Tower, Creek Rise, Dubai Creek Harbour, Dubai",Apartment,25.2060907,55.3439115
333,FLASH SALE: FURNISHED STUDIO WITH KITCHENETTE / ALL BILLS INCLUDED,Studio,1,409 sqft,"4,399","Ocean Heights, Dubai Marina, Dubai",Apartment,25.0905232,55.14871979999999
334,Ex Large Studio for rent in Murjan 2 JBR,Studio,1,800 sqft,"5,999","Murjan 2, Murjan, Jumeirah Beach Residence (JBR), Dubai",Apartment,25.0820815,55.139909
335,First Tenant | Mega Luxury 1BHK | Near Burj Khalifa,1,1,768 sqft,"11,999","Act Two, Act One | Act Two Towers, Opera District, Downtown Dubai, Dubai",Apartment,25.1928405,55.27134230000001
336,Breathtaking View World Renowned Index Tower,2,2,"1,740 sqft","16,800","Index Tower, DIFC, Dubai",Apartment,25.2074025,55.2777425
337,HOT OFFER || FULLY FURNISHED || ELEGANT AMBIANCE,Studio,1,424 sqft,"4,299","Pantheon Elysee, JVC District 13, Jumeirah Village Circle (JVC), Dubai",Apartment,25.0601975,55.2093505
338,Executive 1BR | Burj Khalifa View | Summer Offer!!,1,2,967 sqft,"9,400","Zanzebeel 3, Zanzebeel, Old Town, Downtown Dubai, Dubai",Apartment,25.1895925,55.2737625
339,Luxurious 4BR Penthouse with Tranquil Seaview,4,5,"3,655 sqft","60,000","5242 Towers, Dubai Marina, Dubai",Penthouse,25.0866657,55.150092
340,High Floor / All Bills Included / Summer Deal,1,2,594 sqft,"6,000","Central Park Tower, JVC District 12, Jumeirah Village Circle (JVC), Dubai",Apartment,25.0601975,55.2093505
341,Best Offer Including Bills - Fully Furnished Studio With Large Balcony - International City Phase 2 (Warsan 4),Studio,1,450 sqft,"3,999","International City Phase 2 (Warsan 4), International City, Dubai",Apartment,25.1481822,55.4009738
342,LUXURY | Fully-furnished | Modern,1,1,761 sqft,"7,900","Bahar 6, Bahar, Jumeirah Beach Residence (JBR), Dubai",Apartment,25.0780657,55.1364058
343,Fully Furnished | Modern Amenities | Perfect Location,2,2,"1,343 sqft","8,499","Elite Business Bay Residence, Business Bay, Dubai",Apartment,25.1799797,55.2659768
344,Stylish & Newly- Furnished Studio Apartment in The Vogue Business Bay Downtown Dubai,Studio,1,400 sqft,"5,500","The Voleo, Business Bay, Dubai",Apartment,25.1927942,55.2888388
345,Perfect Family 2BR Apartment with Burj Khalifa and Fountain view,2,3,"1,629 sqft","18,000","The Residence 1, The Residences, Downtown Dubai, Dubai",Apartment,25.1925976,55.2733058
346,Bright 1BR|Harbour Views T2|Dubai Creek Harbour,1,1,709 sqft,"6,699","Harbour Views 2, Harbour Views, Dubai Creek Harbour, Dubai",Apartment,25.2058042,55.3448574
347,GREAT DEAL ll LUXURIOUS ll ELEGANT VIEW,1,2,650 sqft,"6,799","Binghatti Avenue, Al Jaddaf, Dubai",Apartment,25.2122955,55.3164952
348,Business Bay The Cosmopolitan Luxuries' Modern Fully Furnished Studio with Pool view | Monthly 6500/-,Studio,1,505 sqft,"6,500","The Cosmopolitan, Business Bay, Dubai",Apartment,25.1831647,55.272887
349,GREAT DEAL ||  ELEGANT FURNITURE || SPACIOUS,2,3,896 sqft,"9,999","Binghatti Avenue, Al Jaddaf, Dubai",Apartment,25.2122955,55.3164952
350,"""No Commission"" Beautiful and Brand New Studio @5499 in Aura With WIFI & DEWA",Studio,1,415 sqft,"4,999","Azizi Aura, Downtown Jebel Ali, Jebel Ali, Dubai",Apartment,24.980273,55.0924705
351,"   ,   , Amazing, studio ,Fully Furnished",Studio,1,420 sqft,"4,799","Bloom Heights, JVC District 15, Jumeirah Village Circle (JVC), Dubai",Apartment,25.0562234,55.2039177
352,STUNNING ONE BHK !! FULLY FURNISHED !! FREE BILLS !!MONTHLY,1,2,926 sqft,"5,999","Stadium Point, Dubai Sports City, Dubai",Apartment,25.0449952,55.2187764
353,Luxury 2BR Apartment in Burj Royale l Panoramic views of Burj Khalifa and The Dubai Fountain,2,2,"1,045 sqft","13,999","Burj Royale, Downtown Dubai, Dubai",Apartment,25.1916802,55.2801754
354,Beach Access | Balcony with View l 1 BR,1,2,811 sqft,"12,999","Sunrise Bay, Emaar Beachfront, Dubai Harbour, Dubai",Apartment,25.0975186,55.1399927
355,65th Floor Penthouse | Dubai Marina Twisted Tower,4,5,"2,550 sqft","35,000","Cayan Tower, Dubai Marina, Dubai",Apartment,25.0870373,55.1451496
356,Beautiful Villa | Private Pool|Beach | Billiards,4,5,"6,655 sqft","85,000","Garden Homes Frond B, Garden Homes Palm Jumeirah, Palm Jumeirah, Dubai",Villa,25.1221083,55.1402132
357,Burj Khalifa and Dubai Mall Fountain View / Luxury 2 Bedroom,2,3,"1,447 sqft","40,000","The Address Fountain Views 1, The Address Residence Fountain Views, Downtown Dubai, Dubai",Apartment,25.1948261,55.28285959999999
358,Jumeirah Living Marina Gate - 2BR w/ Sunset View by Livbnb,2,2,"1,422 sqft","19,500","Jumeirah Living Marina Gate, Marina Gate, Dubai Marina, Dubai",Apartment,25.0874245,55.1464733
359,Beautiful 1BHK in AVANI @11499 with bills,1,2,990 sqft,"11,499","Avani Palm View Dubai Hotel & Suites, Dubai Media City, Dubai",Apartment,25.0980346,55.1570546
360,NEAT AND CLEAN FULLY FURNISHED STUDIO. . . . NOW IN DISCOUNTED PRICE,Studio,1,550 sqft,"2,499","S-09, Spain Cluster, International City, Dubai",Apartment,25.1651813,55.4021761
361,No Commission | Dubai Marina 2BHK | Fully Furnished | Free DEWA/WiFi,2,2,"1,400 sqft","11,699","Safeer Tower, Dubai Marina, Dubai",Apartment,25.0783206,55.1418324
362,Brand New  Studio  ! Next to Metro !No Commission ! All Bills Included !in Jabel Ali,Studio,1,350 sqft,"4,199","Azizi Aura, Downtown Jebel Ali, Jebel Ali, Dubai",Apartment,24.980273,55.0924705
363,2 NIGHTS FREE ON 2 MONTHS BOOKING|NEW 1+STUDY IN MEYDAN|BILLS INLCUDED| 2 NIGHT FREE,1,1,766 sqft,"6,499","Sobha Creek Vistas Tower A, Sobha Creek Vistas, Sobha Hartland, Dubai",Apartment,25.178171,55.31345630000001
364,Stunning Fully Furnished | High Floor | Ready To Move,1,2,821 sqft,"6,999","AG Tower, Business Bay, Dubai",Apartment,25.1796099,55.269205
365,Discounted Offer | Spacious Balcony | Ready To Move In,2,3,"1,341 sqft","8,500","Tower 108, JVC District 18, Jumeirah Village Circle (JVC), Dubai",Apartment,25.0532011,55.1975172
366,Spacious | Budget friendly | Quiet community,1,2,892 sqft,"5,900","City Apartments, JVC District 11, Jumeirah Village Circle (JVC), Dubai",Apartment,25.0649993,55.210947
367,Fully Serviced Hotel Apartment | Premium Studio,Studio,1,581 sqft,"9,900","Millennium Atria, The Atria, Business Bay, Dubai",Hotel Apartment,25.1797124,55.2637703
368,Quality Living / End Interior / Pay Monthly,2,2,"1,040 sqft","6,999","Pantheon Elysee, JVC District 13, Jumeirah Village Circle (JVC), Dubai",Apartment,25.0601975,55.2093505
369,Great Deal | Two Bedroom Apartment Facing Burj Khalifa Laser Shows | Downtown,2,3,"1,696 sqft","10,000","Burj Al Nujoom, Downtown Dubai, Dubai",Apartment,25.1910236,55.2822663
370,Limited Time Offer I Luxurious 2 BDR Address I JBR,2,2,"1,473 sqft","35,000","The Address Residences Jumeirah Resort and Spa, Jumeirah Beach Residence (JBR), Dubai",Apartment,25.0769441,55.1341346
371,Stunning Apartment / Exclusive Deal /  Elevated High Floor,2,2,"1,140 sqft","9,999","Bloom Tower A, Bloom Towers, JVC District 10, Jumeirah Village Circle (JVC), Dubai",Apartment,25.0666071,55.202942
372,Exquisite 2-bedroom apartment at DAMAC Reva | Fully Furnished | No Commission,2,2,914 sqft,"10,000","Reva Residences, Business Bay, Dubai",Apartment,25.187815,55.2833201
373,Gorgeous 5BR Villa with Private Pool on Palm Jumeirah by Deluxe Holiday Homes,5,5,"6,693 sqft","145,500","Signature Villas Frond F, Signature Villas Palm Jumeirah, Palm Jumeirah, Dubai",Villa,25.1284187,55.1302724
374,Prime location || Modern Stylish || Community view,Studio,1,550 sqft,"5,300","Avanti Tower, Business Bay, Dubai",Apartment,25.1766978,55.27113139999999
375,LUXURIOUS FURNISHED 1 BEDROOM APARTMENT WITH ALL BILLS INCLUDED,1,2,937 sqft,"9,999","DAMAC Towers by Paramount Hotels and Resorts, Business Bay, Dubai",Apartment,25.1831647,55.272887
376,Luxury Spacious Studio Apartments in MK Residence JVC,Studio,1,621 sqft,"4,099","MK Residence, JVC District 11, Jumeirah Village Circle (JVC), Dubai",Apartment,25.0617417,55.2123317
377,Picturesque Burj Khalifa View | All Bills Included,2,3,"1,335 sqft","25,000","The Address Fountain Views 1, The Address Residence Fountain Views, Downtown Dubai, Dubai",Apartment,25.1948261,55.28285959999999
378,Canal View | Spacious 2 BR | Cayan Tower,2,2,"1,255 sqft","11,000","Cayan Tower, Dubai Marina, Dubai",Apartment,25.0870373,55.1451496
379,Summer Promotion | Fully Furnished | Modern Amenities | Family-Oriented,1,1,651 sqft,"5,999","Bloom Towers, JVC District 10, Jumeirah Village Circle (JVC), Dubai",Apartment,25.065054,55.2057745
380,Maison Privee - Charming Apt close to Dubai Future Museum & DIFC,2,2,"1,184 sqft","12,000","Millennium Tower, Sheikh Zayed Road, Dubai",Apartment,25.1945624,55.2662376
381,GREAT DEAL ll LUXURY DESIGN ll FULLY FURNISHED,1,2,666 sqft,"7,999","Binghatti Creek, Al Jaddaf, Dubai",Apartment,25.2123114,55.3191168
382,Newly Furnished 1BR Apartment in Meydan -Dubai,1,1,701 sqft,"11,000","Alphabeta MA-1, Meydan Avenue, Meydan City, Dubai",Apartment,25.1573725,55.2950974
383,Amazing Building Facilities |  Furnished 1BR | Bay Central,1,1,646 sqft,"6,200","Bay Central, Dubai Marina, Dubai",Apartment,25.0786645,55.1375328
384,Livbnb Suites - Residences Tower - Luxurious 3BR with Burj Khalifa View,3,4,"1,837 sqft","34,500","The Residences, Downtown Dubai, Dubai",Apartment,25.1925976,55.2733058
385,Fully Furnished | Health Club | Naturally Well-Lit,1,2,782 sqft,"8,499","Churchill Towers, Business Bay, Dubai",Apartment,25.181333,55.2621183
386,HOT OFFER || FULLY FURNISHED STUDIO WITH BIG BALCONY CLOSE TO MARINA,Studio,1,520 sqft,"5,000","Building 15, Zen Cluster, Discovery Gardens, Dubai",Apartment,25.0390117,55.1444815
387,Luxurious 2BR Apartment with Dubai Fountain View,2,3,"1,717 sqft","20,000","Opera Grand, Downtown Dubai, Dubai",Apartment,25.1937217,55.2712261
388,Pool Retreat | Fully Furnished | All Bills Included,2,3,"2,700 sqft","26,000","The Springs 8, The Springs, Dubai",Villa,25.0614538,55.1872042
389,"Arjaan Rotana Hotel located heart of Dubai Media city, King Salman Bin Abdul Aziz Al Saud Street Near MBC Building, Dubai -5-10 Mints - Metro &Tram",3,5,"1,960 sqft","17,999","Arjaan Hotel and Arjaan Office Tower, Dubai Media City, Dubai",Hotel Apartment,25.0954003,55.1546153
390,Full Sea View | Fully Furnished | All Bills Included,2,2,"1,475 sqft","24,900","Jumeirah Gate Tower 1, The Address Residences Jumeirah Resort and Spa, Jumeirah Beach Residence (JBR), Dubai",Apartment,25.0769441,55.1341346
391,Fully Modified Furnished Studio Available on Monthly Basis with Balcony,Studio,1,550 sqft,"2,499","France Cluster, International City, Dubai",Apartment,25.1609303,55.4007923
392,FLASH SALE: 1BEDROOM NEXT TO BEACH / ALL BILLS INCLUDED,1,1,667 sqft,"4,499","Blue Beach Tower, Al Fattan Marine Towers, Jumeirah Beach Residence (JBR), Dubai",Apartment,25.0797787,55.136488
393,3 NIGHTS FREE ON 2 MONTHS BOOKING| Sea View 1 bedroom| Facing the Sea/Atlantis/Burj Al Arab| All Bills Included,1,2,"1,083 sqft","13,499","Avani Palm View Dubai Hotel & Suites, Dubai Media City, Dubai",Apartment,25.0980346,55.1570546
394,2ndhome Chic and Light Newly Furnished Loft,1,2,"1,178 sqft","17,000","Harbour Gate Tower 1, Harbour Gate, Dubai Creek Harbour, Dubai",Apartment,25.2084896,55.3472011
395,Upgraded | Fully Furnished | All Bills Included,1,1,"1,183 sqft","9,900","Trident Grand Residence, Dubai Marina, Dubai",Apartment,25.0831549,55.14090299999999
396,Bespoke 1 Bedroom Apartment in Business Bay,1,2,933 sqft,"13,600","DAMAC Maison Prive, Business Bay, Dubai",Apartment,25.1843104,55.2755156
397,Vacant | High Floor | Dubai Eye/Marina Skyline View,Studio,1,523 sqft,"11,000","The Palm Tower, Palm Jumeirah, Dubai",Apartment,25.1137853,55.1399566
398,Spacious 1 Bedroom Apartment with Balcony / Free Parking / Pool / Gym Access I 15 Min Saifee Masjid (Dawoodi Bohra Masjid),1,2,900 sqft,"6,250","Oud Metha, Bur Dubai, Dubai",Apartment,25.239126,55.3129667
399,Elegant 1BR at Artesia Tower B DAMAC Hills Dubailand by Deluxe Holiday Homes,1,1,809 sqft,"6,300","Artesia B, Artesia, DAMAC Hills, Dubai",Apartment,25.0190776,55.2456673
400,Gorgeous 2 Bedroom Apartment | 2 Balcony | 5-01,2,2,"1,280 sqft","15,000","Alphabeta MA-1, Meydan Avenue, Meydan City, Dubai",Apartment,25.1573725,55.2950974
401,Spacious 2 BHK || Fully furnished || All Bills included,2,3,"1,269 sqft","8,999","Capital Bay Tower B, Capital Bay Towers, Business Bay, Dubai",Apartment,25.1767054,55.27215289999999
402,ELEGANT STUDIO | HOT DEAL | FULLY FURNISHED | SPACIOUS | CALL NOW!,Studio,1,420 sqft,"4,499","Plaza Residences Block D, Plaza Residences, JVC District 13, Jumeirah Village Circle (JVC), Dubai",Apartment,25.0528232,55.2080561
403,Stunning 1B Apartment with balcony in Dubai Marina,1,2,865 sqft,"10,000","Sparkle Tower 1, Sparkle Towers, Dubai Marina, Dubai",Apartment,25.0714847,55.1321149
404,All taxes inclusive / Dewa Inclsive/Car parking Incuisve/3 time Housekeeping service in a week.,1,1,700 sqft,"8,000","Al Mankhool, Bur Dubai, Dubai",Hotel Apartment,25.2459667,55.29499759999999
405,SUMMER OFFER ! 2bd + storage apartment in JBR | Utility Bills Included | No Commission,2,2,"1,516 sqft","10,500","Bahar 2, Bahar, Jumeirah Beach Residence (JBR), Dubai",Apartment,25.0770705,55.1344606
406,Promotion Rate | High Floor | All Bills Included,2,3,"1,396 sqft","15,500","Marina Gate 1, Marina Gate, Dubai Marina, Dubai",Apartment,25.0867931,55.1475512
407,Nordic Styled Studio High floor Golf course views,Studio,1,409 sqft,"5,999","Carson Tower B, Carson - The Drive, DAMAC Hills, Dubai",Apartment,25.0245455,55.2431504
408,Stunning Two Bedroom in JBR,2,2,"1,426 sqft","10,999","Sadaf 7, Sadaf, Jumeirah Beach Residence (JBR), Dubai",Apartment,25.0813125,55.13843749999999
409,NO COMMISSION| SUMMER OFFER | 2BR with a Spectacular Marina Skyline View,2,2,"1,151 sqft","15,999","Sunrise Bay Tower 2, Sunrise Bay, Emaar Beachfront, Dubai Harbour, Dubai",Apartment,25.0975842,55.1399019
410,Newly Furnished One Bedroom Apartment,1,2,900 sqft,"11,999","Index Tower, DIFC, Dubai",Apartment,25.2074025,55.2777425
411,Luxury Beach Front 1BEDROOM Palm Jumeirah,1,2,"1,157 sqft","16,499","Azure Residences, Palm Jumeirah, Dubai",Apartment,25.1069979,55.1526539
412,"Stylish 2-Bedroom Apartment in JBR, Perfect for Enjoying the Ocean Vistas.",2,2,"1,669 sqft","13,999","Al Bateen Towers, The Walk, Jumeirah Beach Residence (JBR), Dubai",Apartment,25.072367,55.127675
413,Two Bedroom Apartment,2,2,"1,100 sqft","11,100","Al Barsha 1, Al Barsha, Dubai",Apartment,25.1103799,55.1954315
414,Steaming Offer | Lavish Studio Apt I Free Cleaning,Studio,1,377 sqft,"4,499","Sama Building, Al Barsha 1, Al Barsha, Dubai",Apartment,25.1105513,55.2029218
415,Very Beautiful Studio in New Family Building for Monthly Rent. . .,Studio,1,408 sqft,"2,800","Global Green View 2, Global Green View, Central Business District, International City, Dubai",Apartment,25.1675346,55.4091973
416,NO COMMISSION !! 1bd Apartment with Sea View in Palm Jumeirah! FREE BILLS,1,1,"1,290 sqft","10,500","Tiara Residences, Palm Jumeirah, Dubai",Apartment,25.2048493,55.2707828
417,Cozy 1 Bedroom I All In l Free Cleaning l Near Metro,1,2,650 sqft,"3,810","Al Barsha Business Center, Al Barsha 1, Al Barsha, Dubai",Apartment,25.1134916,55.1939812
418,Captivating 2BR | Sea Views | Limited Summer Offer!!,2,3,"1,582 sqft","10,700","Ocean Heights, Dubai Marina, Dubai",Apartment,25.0905232,55.14871979999999
419,JBR The Walk Rimal - 4-Bedroom Suite Full Sea View,4,5,"3,000 sqft","28,000","Rimal 4, Rimal, Jumeirah Beach Residence (JBR), Dubai",Apartment,25.0763789,55.133531
420,Beach Spacious Two-Bedroom Apartment,2,2,"1,450 sqft","14,000","Rimal, Jumeirah Beach Residence (JBR), Dubai",Apartment,25.0765289,55.13378969999999
421,Modern Studio without kitchen next to the Metro Station,Studio,1,269 sqft,"3,250","Al Barsha 1, Al Barsha, Dubai",Hotel Apartment,25.1103799,55.1954315
422,Brand New  Studio with Balcony  !No Commission ! All Bills Included !in Al Jadaf,Studio,1,348 sqft,"5,499","Farhad Azizi Residence, Dubai Healthcare City Phase 2, Al Jaddaf, Dubai",Apartment,25.2090203,55.315404
423,NO COMMISSION ! BRAND NEW FABULOUS STUDIO Apartment in SILVERENE TOWER DUBAI MARINA,Studio,1,450 sqft,"6,500","Silverene, Dubai Marina, Dubai",Apartment,25.0749194,55.1385605
424,Luxurious Waterfront Villa with Sea and Burj Khalifa View,4,7,"5,495 sqft","60,000","Sur La Mer, Port De La Mer, La Mer, Jumeirah, Dubai",Villa,25.2396355,55.25280129999999
425,NEW UNIT! | Furnished Studio | Icon Tower,1,1,692 sqft,"6,400","Icon Tower 2, JLT Cluster L, Jumeirah Lake Towers (JLT), Dubai",Apartment,25.0654482,55.1402132
426,Luxury Apartment in JBR - Address Residence | NO COMMISSION! Fantastic Location !,1,1,858 sqft,"10,500","The Address Residences Jumeirah Resort and Spa, Jumeirah Beach Residence (JBR), Dubai",Apartment,25.0769441,55.1341346
427,Ritzy Studio at Artesia Tower DAMAC Hills Dubailand by Deluxe Holiday Homes,Studio,1,472 sqft,"11,200","Artesia B, Artesia, DAMAC Hills, Dubai",Apartment,25.0190776,55.2456673
428,Maison Privee -  Private Pool & Beach Access Villa w/ Breathtaking Vws,6,5,"13,412 sqft","126,000","Signature Villas Frond L, Signature Villas Palm Jumeirah, Palm Jumeirah, Dubai",Villa,25.1162331,55.1227156
429,Summer Promotion | Modern Furnished | Best Amenities | Family-Oriented,1,2,917 sqft,"7,999","AG Tower, Business Bay, Dubai",Apartment,25.1796099,55.269205
430,Newly Furnished | 2BR+Maids in Citywalk,2,4,"2,100 sqft","18,999","City Walk, Al Wasl, Dubai",Apartment,25.2074895,55.2625253
431,Livbnb Suites - Elegant 4B+Maid room Villa in Palm,4,6,"6,692 sqft","72,500","Garden Homes Frond L, Garden Homes Palm Jumeirah, Palm Jumeirah, Dubai",Villa,25.1162331,55.1227156
432,| SPACIOUS || COMFORTABLE || WEEKLY CLEANING TWICE || ONE BEDROOM JBR,1,2,740 sqft,"7,499","Suha Hotel Apartments, Jumeirah Beach Residence (JBR), Dubai",Apartment,25.0797773,55.1374732
433,1BR  in Bluewater W/ Private Beach,1,2,808 sqft,"21,500","Caesars Resort, Bluewaters Island, Dubai",Apartment,25.079914,55.12177939999999
434,Discover the Ultimate Dubai Lifestyle in Downtown,Studio,1,469 sqft,"8,499","29 Boulevard, Downtown Dubai, Dubai",Apartment,25.1918989,55.2727574
435,Spacious Brand New Studio/ Furnished/Kitchen Appliances/Balcony | Holiday Boulevard,Studio,1,432 sqft,"3,999","Pantheon Elysee, JVC District 13, Jumeirah Village Circle (JVC), Dubai",Apartment,25.0601975,55.2093505
436,Newly furnished 2BR APT with Luxurious Amenities,2,1,730 sqft,"10,000","Collective 2.0, Dubai Hills Estate, Dubai",Apartment,25.114898,55.24761489999999
437,3 NIGHTS FREE ON 2 MONTHS BOOKING| New Stylish Studio in Al Furjan| Bills Included.,Studio,1,412 sqft,"3,999","Azizi Plaza, Al Furjan, Dubai",Apartment,25.0219527,55.1393223
438,Affordable Price || Lavish Elegant || Modern Spacious,Studio,1,550 sqft,"2,490","S-23, Spain Cluster, International City, Dubai",Apartment,25.1651813,55.4021761
439,"Spacious, Newly Furnished, Premium Apartment",2,3,"1,598 sqft","15,500","The Residences, Downtown Dubai, Dubai",Apartment,25.1925976,55.2733058
440,Best Views | Address Marina | Studio,Studio,1,545 sqft,"11,500","The Address Dubai Marina (Mall Hotel), Dubai Marina, Dubai",Apartment,25.0771646,55.1405298
441,WATER VIEW| Modern 1 BR  | Mayfair Tower,1,1,807 sqft,"6,400","Mayfair Tower, Business Bay, Dubai",Apartment,25.1817419,55.278155
442,"No Commission!! Marina Waterfront View, New Apartment With Premium Furnishings",2,3,"1,480 sqft","14,400","Bonaire Tower, Park Island, Dubai Marina, Dubai",Apartment,25.0820935,55.1423689
443,Luxury | Highly Upgraded | Fully Furnished,2,2,990 sqft,"11,999","Executive Residences 2, Executive Residences, Dubai Hills Estate, Dubai",Apartment,25.1123419,55.2480894
444,Fully Furnished | 3BHK + Maid | Monthly,3,4,"1,882 sqft","30,000","Acacia C, Acacia, Park Heights, Dubai Hills Estate, Dubai",Apartment,25.1129375,55.24636779999999
445,Amazing Offer I Lovely Studio Apt I  !! All In l Free Cleaning,Studio,1,301 sqft,"4,299","Sheikha Noora Tower, Barsha Heights (Tecom), Dubai",Apartment,25.0982587,55.1765645
446,Brand New | High Floor | Canal View,2,3,"1,274 sqft","16,000","J One, Business Bay, Dubai",Apartment,25.1861077,55.2833631
447,Exotic Studio Apartment in JLT,Studio,1,489 sqft,"6,450","Saba Tower 2, JLT Cluster Q, Jumeirah Lake Towers (JLT), Dubai",Apartment,25.0769998,55.1461198
448,(SUMMER DEAL) FULLY FURNISHED STUDIO IN RUSSIA CLUSTER,Studio,1,499 sqft,"2,399","Russia Cluster, International City, Dubai",Apartment,25.1707268,55.4035599
449,BEST DEAL ll MODERN AMENITIES  ll ZERO COMMISSION,1,1,750 sqft,"5,999","Vera Residences, Business Bay, Dubai",Apartment,25.1868571,55.2829892
450,HOT DEAL || FULLY FURNISHED || ELEGANT FURNISHED,1,2,744 sqft,"6,799","Binghatti Avenue, Al Jaddaf, Dubai",Apartment,25.2122955,55.3164952
451,Elegant &  Modern || Lavish & Spacious || Hot Offer,Studio,1,550 sqft,"3,790","International City Phase 2 (Warsan 4), International City, Dubai",Apartment,25.1481822,55.4009738
452,Stylish apartment in Dubai Creek Harbour,1,1,743 sqft,"8,500","17 Icon Bay, Dubai Creek Harbour, Dubai",Apartment,25.2039806,55.3457334
453,Luxurious | Chiller Free | Free Wifi & Utilities | Brand New,Studio,1,380 sqft,"6,800","Farhad Azizi Residence, Dubai Healthcare City Phase 2, Al Jaddaf, Dubai",Apartment,25.2090203,55.315404
454,Splendid 5BR Villa at Canal Cove Palm Jumeirah,5,5,"5,046 sqft","80,000","Canal Cove, Palm Jumeirah, Dubai",Villa,25.1124317,55.13897799999999
455,STUDIO ! next to Marina  | All Bills Included | FREE Cleaning Services,Studio,1,400 sqft,"4,200","23 Marina, Dubai Marina, Dubai",Apartment,25.0897173,55.1506471
456,NO COMMISSION | ALL INCLUSIVE | FURNISHED 2BR APARTMENT | DUBAI SPORTS CITY,2,2,921 sqft,"7,500","Zenith Tower A2, Zenith Towers, Dubai Sports City, Dubai",Apartment,25.0391345,55.2176352
457,Newly Furnished |  Luxury Living | Amazing View |,2,2,"1,211 sqft","13,000","Creek Horizon Tower 2, Creek Horizon, Dubai Creek Harbour, Dubai",Apartment,25.2068836,55.3442211
458,Luxurious | Chiller Free | Free Wifi & Utilities | Brand New,Studio,1,351 sqft,"6,450","Farhad Azizi Residence, Dubai Healthcare City Phase 2, Al Jaddaf, Dubai",Apartment,25.2090203,55.315404
459,"Spacious Room, near to metro no Kitchen at Bur Dubai",1,1,484 sqft,"3,499","Al Mankhool, Bur Dubai, Dubai",Hotel Apartment,25.2459667,55.29499759999999
460,Bluewaters 3 bedroom + office - Dubai Eye view / JBR skyline  / Sea view,3,5,"2,097 sqft","44,999","Apartment Building 8, Bluewaters Residences, Bluewaters Island, Dubai",Apartment,25.0792222,55.11966839999999
461,"Two Bedroom Apartment, Community View, Fully Furnished",2,3,"2,411 sqft","12,500","Ramada Hotel & Suites JBR, Jumeirah Beach Residence (JBR), Dubai",Hotel Apartment,25.0769441,55.1341346
462,Studio Apartment in DAMAC Maison Prive l High Floor l Dubai Canal view,Studio,1,431 sqft,"6,299","DAMAC Maison Prive, Business Bay, Dubai",Apartment,25.1843104,55.2755156
463,HOT DEAL || FULLY FURNISHED || ELEGANT FURNITURE,2,2,892 sqft,"9,999","Binghatti Avenue, Al Jaddaf, Dubai",Apartment,25.2122955,55.3164952
464,Summer Flash Sale Promotion I 1 Bedroom Hotel Apartment I Free Cleaning,1,2,630 sqft,"5,238","Sheikha Noora Tower, Barsha Heights (Tecom), Dubai",Apartment,25.0982587,55.1765645
465,Fully Modified Furnished Studio Available on Monthly Basis with Balcony,Studio,1,550 sqft,"2,499","S-05, Spain Cluster, International City, Dubai",Apartment,25.1654758,55.40257339999999
466,Luxury 1bedroom |Sea View| 52/42 Dubai Marina,1,1,678 sqft,"11,999","5242 Towers, Dubai Marina, Dubai",Apartment,25.0866657,55.150092
467,| SPACIOUS || NEAR MARINA MALL || WEEKLY CLEANING || PARKING |,Studio,1,530 sqft,"6,499","Safeer Tower, Dubai Marina, Dubai",Apartment,25.0783206,55.1418324
468,Summer offer Zero Commission | Amazing 1BHK | With Cleaning | All Bills I No Hidden Charges,1,1,750 sqft,"5,499","Al Barsha 1, Al Barsha, Dubai",Apartment,25.1103799,55.1954315
469,| CHEAP DEAL | FULLY FURNISHED STUDIO IN JVC !!!,Studio,1,390 sqft,"3,999","Burj Sabah, JVC District 12, Jumeirah Village Circle (JVC), Dubai",Apartment,25.0533358,55.2201904
470,Perfect Island Relaxation | 1BR at Palm Jumeirah!!,1,1,"1,070 sqft","12,000","Anantara Residences - South, Anantara Residences, Palm Jumeirah, Dubai",Apartment,25.1313252,55.1529958
471,Livbnb Suites - High-Floor 3 Bedroom Suite in Dubai Marina,3,4,"2,491 sqft","17,250","Trident Marinascape Oceanic Tower, Trident Marinascape, Dubai Marina, Dubai",Apartment,25.0825186,55.1467752
472,Panoramic View of Dubai Skyline | MONTHLY OFFERS AVAILABLE!,2,2,"1,240 sqft","17,999","The Grand, Dubai Creek Harbour, Dubai",Apartment,25.209088,55.3434709
473,FULLY FURNISHED APARTMENT VERY CHEAPE  PRICE READY TO MOVE BRAND NEW APARTMENT,Studio,1,620 sqft,"4,500","Jumeirah Village Circle (JVC), Dubai",Apartment,25.0601975,55.2093505
474,READY TO MOVE IN STUDIO || AMAZINGLY FURNISHED || CALL US NOW,Studio,1,476 sqft,"3,299","Laya Mansion, JVC District 15, Jumeirah Village Circle (JVC), Dubai",Apartment,25.0559406,55.2011756
475,( Hot Deal ) Fully Furnished | Modern Amenities | Convenient Location.,1,2,999 sqft,"4,899","Al Zain Residence, JVC District 14, Jumeirah Village Circle (JVC), Dubai",Apartment,25.0526112,55.2061688
476,Burj View | Weekly Cleaning | Bills Included,1,2,"1,023 sqft","9,990","The Residence 3, The Residences, Downtown Dubai, Dubai",Apartment,25.1925976,55.2733058
477,Furnished Apartment Over Looking Burj Khalifa,1,2,559 sqft,"10,000","The Carlton Downtown Hotel, Sheikh Zayed Road, Dubai",Apartment,25.2093267,55.27480329999999
478,Alluring Studio in Business Bay,Studio,1,459 sqft,"8,500","DAMAC Maison Prive, Business Bay, Dubai",Apartment,25.1843104,55.2755156
479,Spacious |  Fully Furnished | No commission,Studio,1,441 sqft,"5,500","DAMAC Ghalia, JVC District 18, Jumeirah Village Circle (JVC), Dubai",Apartment,25.0531125,55.1989628
480,Adorable 1 BR | Spacious & Luxury | Sobha Creek Vistas,1,1,487 sqft,"6,000","Sobha Creek Vistas Tower A, Sobha Creek Vistas, Sobha Hartland, Dubai",Apartment,25.178171,55.31345630000001
481,SUMMER OFFER !!!  | NEAR METRO | DUBAI MARINA,2,2,"1,130 sqft","9,500","Marina Diamond 6, Marina Diamonds, Dubai Marina, Dubai",Apartment,25.0807635,55.14586509999999
482,Great Offer! Elegant 1 BR | Bayz by Danube,1,1,809 sqft,"6,300","Bayz by Danube, Business Bay, Dubai",Apartment,25.1808454,55.2792744
483,FULLY FURNISHED | CANAL VIEW | NEAR DUBAI MALL,Studio,1,470 sqft,"5,900","Elite Downtown Residence, Downtown Dubai, Dubai",Apartment,25.1860802,55.2783379
484,Luxury 1 bedroom with recliner Furjan,1,2,824 sqft,"5,999","Shaista Azizi, Al Furjan, Dubai",Apartment,25.0302756,55.1399889
485,MONTHLY: ONE-BEDROOM FULLY FURNISHED APARTMENT,1,1,667 sqft,"4,499","23 Marina, Dubai Marina, Dubai",Apartment,25.0897173,55.1506471
486,Super Deal## Amazing fully furnished BHK only 3500 excluding bills in Emirates cluster_ic,1,2,850 sqft,"3,499","Spain Cluster, International City, Dubai",Apartment,25.1651813,55.4021761
487,HomesGetaway - Promotion Rate Until 30th July Modern 1BR in The Address JBR,1,1,855 sqft,"9,000","The Walk, Jumeirah Beach Residence (JBR), Dubai",Apartment,25.0777533,55.1338275
488,Spacious 2 bedroom Apartment in Mirdif,2,2,"1,514 sqft","8,499","Gate Apartments, Uptown Mirdif, Mirdif, Dubai",Apartment,25.2243595,55.4240784
489,Newly furnished Studio next to metro all bills inclusive,Studio,1,550 sqft,"4,100","Building 198, Mogul, Discovery Gardens, Dubai",Apartment,25.0341116,55.1492673
490,New Luxurious Dubai Creek fully furnished 2 Bed,2,2,"1,097 sqft","10,500","17 Icon Bay, Dubai Creek Harbour, Dubai",Apartment,25.2039806,55.3457334
491,Super Deal## Amazing fully furnished studio only 2300 in Spain cluster _IC,Studio,1,484 sqft,"2,300","Spain Cluster, International City, Dubai",Apartment,25.1651813,55.4021761
492,Spacious 2Bedroom with Burj View in Downtown Dubai,2,2,969 sqft,"10,500","Kamoon 1, Kamoon, Old Town, Downtown Dubai, Dubai",Apartment,25.1897725,55.2755588
493,Ready To Move || Large Studio With Balcony || Pay Monthly || Discovery Garden,Studio,1,550 sqft,"4,500","Building 5, Zen Cluster, Discovery Gardens, Dubai",Apartment,25.0422225,55.1410445
494,"2 Bed Apt in La Riviera, JVC",2,2,"1,069 sqft","9,499","La Riviera, Dubai Marina, Dubai",Apartment,25.0734074,55.1386816
495,Limited Offer|Impressive Apt with Magnificent View,3,3,"2,098 sqft","67,999","Bluewaters Residences, Bluewaters Island, Dubai",Apartment,25.0792222,55.11966839999999
496,No Commission | No Hidden Charges| 1BHK Serviced Apartment | Free Cleaning | Close to MOE,1,2,850 sqft,"6,299","Al Barsha 1, Al Barsha, Dubai",Hotel Apartment,25.1103799,55.1954315
497,Admirable 2BR Apt with Skyscrapers View,2,2,"1,404 sqft","15,499","BLVD Heights, Downtown Dubai, Dubai",Apartment,25.1925587,55.26953959999999
498,Pristine 1BR | Fully Furnished | DAILY OFFERS AVAILABLE!,1,1,646 sqft,"7,999","Executive Residences 2, Executive Residences, Dubai Hills Estate, Dubai",Apartment,25.1123419,55.2480894
499,Large Studio With Balcony Just 5000 Included Bills  Close To Metro,Studio,1,550 sqft,"5,000","Building 15, Zen Cluster, Discovery Gardens, Dubai",Apartment,25.0390117,55.1444815
500,Furnished 1 BHK Hotel Apartment | FREE DEWA | FREE PARKING,1,1,670 sqft,"6,499","Mercure Barsha Heights Hotel Suites & Apartments, Barsha Heights (Tecom), Dubai",Hotel Apartment,25.1009248,55.1731573
501,Super Deal## Amazing fully furnished BHK only 5000 including bills in silicon oasis,1,2,700 sqft,"4,999","S Residence, Dubai Silicon Oasis, Dubai",Apartment,25.1163114,55.3889805
502,Summer Deal| 2BR with Delightful Sea View,2,2,"1,827 sqft","18,999","Anantara Residences - South, Anantara Residences, Palm Jumeirah, Dubai",Apartment,25.1313252,55.1529958
503,PANORAMIC VIEW | Fully Furnished 3 BR | Paramount,3,3,"1,478 sqft","19,500","Paramount Hotel & Residences, Business Bay, Dubai",Apartment,25.1832074,55.2728756
504,"Spectacular 2BR at Act One Act Two, Downtown Dubai",2,2,"1,184 sqft","20,000","Act One, Act One | Act Two Towers, Opera District, Downtown Dubai, Dubai",Apartment,25.1928405,55.27134230000001
505,Spacious 3 Bedroom Apartment | Marina View | Sparkle Tower,3,5,"1,874 sqft","19,999","Sparkle Tower 1, Sparkle Towers, Dubai Marina, Dubai",Apartment,25.0714847,55.1321149
506,Luxury Studio near Metro and DIFC,Studio,1,473 sqft,"7,000","A A Tower, Sheikh Zayed Road, Dubai",Apartment,25.2100682,55.2733564
507,Sea Facing  Luxurious 2BR Apartment | Paramount Midtown,2,3,"1,240 sqft","11,999","Paramount Hotel & Residences, Business Bay, Dubai",Apartment,25.1832074,55.2728756
508,All Bills Included !! Attached to a mall | Spectacular Views,1,1,603 sqft,"12,000","Holiday Inn Hotel, Dubai Festival City, Dubai",Hotel Apartment,25.2208025,55.3558311
509,Amazing Marina view || High floor || Continental tower,1,2,745 sqft,"6,500","Continental Tower, Dubai Marina, Dubai",Apartment,25.0799664,55.1390821
510,Brand new Furniture !One Bedroom Apartment !Near Metro !No Commission !in JLT,1,1,752 sqft,"8,750","Lake Terrace, JLT Cluster D, Jumeirah Lake Towers (JLT), Dubai",Apartment,25.0701718,55.1411186
511,Fully Furnished Apartment in Spain Cluster,Studio,1,490 sqft,"2,500","Spain Cluster, International City, Dubai",Apartment,25.1651813,55.4021761
512,Pristine Studio At Blue Wave Tower Dubailand by Deluxe Holiday Homes,Studio,1,585 sqft,"4,500","Blue Waves Tower, Dubai Residence Complex, Dubai",Apartment,25.098042,55.37828039999999
513,Sophisticated 1 Bedroom / Utilities included,1,2,950 sqft,"11,000","DAMAC Towers by Paramount Hotels and Resorts, Business Bay, Dubai",Apartment,25.1831647,55.272887
514,Special Offer I Cozy Furnishings I Tranquil Pool & Marina View,2,2,"1,443 sqft","14,900","Paloma, Marina Promenade, Dubai Marina, Dubai",Apartment,25.0749822,55.1330055
515,STUDIO || ALFURJAN || SUMMER OFFER || HOT DEAL || ELEGANT FURNISHED || ALL AMENITIES,Studio,1,389 sqft,"4,499","Azizi Star, Al Furjan, Dubai",Apartment,25.024767,55.1392004
516,Sophisticated 1BR | Business Bay |  MONTHLY OFFERS AVAILABLE!,1,1,473 sqft,"7,999","Zada Tower, Business Bay, Dubai",Apartment,25.1844747,55.2617373
517,Summer Promo I Chic Studio I Minutes from the Burj Khalifa,Studio,1,505 sqft,"6,999","Elite Business Bay Residence, Business Bay, Dubai",Apartment,25.1799797,55.2659768
518,"Large 3 Bedroom Apt. in MBK Tower, Sheikh Zayed road",3,3,"1,938 sqft","15,999","MBK Tower, Business Bay, Dubai",Apartment,25.1923702,55.2622655
519,SPACIOUS 1 BHK/FULLY FURNISHED/4 BURNER LPG STOVE TOP/DAILY HOUSEKEEPING/MODERN/NEW (2022)/SMART TV/FREE PARKING/FREE WI-FI/BALCONY/LIVING/2 TOILETS,1,2,750 sqft,"7,599","Al Mankhool, Bur Dubai, Dubai",Hotel Apartment,25.2459667,55.29499759999999
520,Brand New 1BR Apartment in Business Bay - Dubai,1,1,467 sqft,"7,000","Zada Tower, Business Bay, Dubai",Apartment,25.1844747,55.2617373
521,"Flawless 3BR Townhouse at DAMAC Hills 2, Dubailand by Deluxe Holiday Homes",3,4,"1,876 sqft","13,000","Amazonia, DAMAC Hills 2 (Akoya by DAMAC), Dubai",Townhouse,24.9872139,55.3736168
522,Furnished Apartment Over Looking Burj Khalifa,Studio,1,452 sqft,"7,500","The Carlton Downtown Hotel, Sheikh Zayed Road, Dubai",Apartment,25.2093267,55.27480329999999
523,Phenomenal 1BR at Al Tajer E Downtown Dubai,1,1,958 sqft,"12,100","Tajer Residence, The Old Town Island, Downtown Dubai, Dubai",Apartment,25.1958043,55.2776775
524,Elegant 2BR | Old Town with Full Burj Khalifa Views,2,3,"1,406 sqft","12,000","Miska 1, Miska, Old Town, Downtown Dubai, Dubai",Apartment,25.1891367,55.2758555
525,Spacious & Fully-furnished 1 Bedroom Apartment,1,1,862 sqft,"10,500","Princess Tower, Dubai Marina, Dubai",Apartment,25.0887804,55.14689509999999
526,Luxurious1BHK|Huge Balcony|City View|Zero Commission|,1,1,915 sqft,"5,999","Marmara Hotel Apartments, Al Barsha 1, Al Barsha, Dubai",Apartment,25.109309,55.2035099
527,J. R. R Stays - Bloom Towers - JVC - Dubai - Pool,Studio,1,376 sqft,"4,450","Bloom Tower B, Bloom Towers, JVC District 10, Jumeirah Village Circle (JVC), Dubai",Apartment,25.0671171,55.2034265
528,Summer Offer | Luxury 1BR | Fully Furnished | Available now,1,2,946 sqft,"8,899","DAMAC Towers by Paramount Hotels and Resorts, Business Bay, Dubai",Apartment,25.1831647,55.272887
529,Amazing 2BR Sunrise Bay I Emaar Beachfront | Monthly,2,3,"1,100 sqft","12,000","Sunrise Bay Tower 1, Sunrise Bay, Emaar Beachfront, Dubai Harbour, Dubai",Apartment,25.0967614,55.1394516
530,Beautiful 1BR in Business Bay@8499 Fully Furnished with All Bills Available,1,2,748 sqft,"8,499","Paramount Hotel & Residences, Business Bay, Dubai",Apartment,25.1832074,55.2728756
531,Luxurious Apartment // 02 Bed Room // No Commission,2,2,"1,281 sqft","14,000","Meydan Heights, Meydan City, Dubai",Apartment,25.1427057,55.3151476
532,ONE BEDROOM || DAMAC || HOT DEAL || BEST DEAL || ELEGANCE || STUNNING VIEW || LUXURY || MASTER PIECE,1,1,480 sqft,"5,999","Golf Vita, DAMAC Hills, Dubai",Apartment,25.0228736,55.2427461
533,Breathtaking Sea View Mahogany 4BR in Palm Jumeirah,3,3,"2,159 sqft","20,000","Al Khudrawi, Shoreline Apartments, Palm Jumeirah, Dubai",Apartment,25.1102047,55.146939
534,Free Beach Access! Panoramic Sea View,2,2,"1,264 sqft","13,999","Sunrise Bay Tower 2, Sunrise Bay, Emaar Beachfront, Dubai Harbour, Dubai",Apartment,25.0975842,55.1399019
535,Tranquil 1 BR || Sea View apartment || Vacant Now,1,2,805 sqft,"7,500","Bahar 6, Bahar, Jumeirah Beach Residence (JBR), Dubai",Apartment,25.0780657,55.1364058
536,2 Bedroom Hotel Apartment | Burj Khalifa Canal View,2,3,"1,184 sqft","15,800","Royal Continental Suites, Business Bay, Dubai",Hotel Apartment,25.1829866,55.2834542
537,Two Bedroom  Apartment By Bhavan Homes - Business Bay,2,2,"1,270 sqft","10,000","Majestic Tower, Business Bay, Dubai",Apartment,25.1844221,55.2812208
538,Ornate 1BR in The Address Residences Dubai Marina,1,1,873 sqft,"12,300","The Address Dubai Marina (Mall Hotel), Dubai Marina, Dubai",Apartment,25.0771646,55.1405298
539,"Spacious and Modern 2BR Apartment at Business Bay, Dubai",2,3,"1,270 sqft","9,500","Majestic Tower, Business Bay, Dubai",Apartment,25.1844221,55.2812208
540,ALL BILLS INCLUDED | Furnished 2 BR | Al Murad Tower,2,2,"1,113 sqft","8,300","Al Murad Tower, Al Barsha 1, Al Barsha, Dubai",Apartment,25.1135583,55.2013255
541,Furnished Two Bedroom Apartment Standard-All Bills Included- No Commission -  Monthly,2,3,"1,290 sqft","12,000","Barcelo Residences, Dubai Marina, Dubai",Apartment,25.0835021,55.1423164
542,Elegant | Furnished 1BR | Marina View Apartment,1,2,651 sqft,"8,000","Bay Central (Central Tower), Bay Central, Dubai Marina, Dubai",Apartment,25.0786645,55.1375328
543,Maison Privee - Premium Studio with Burj Khalifa Vws in Downtown,Studio,1,478 sqft,"6,500","DAMAC Maison Prive, Business Bay, Dubai",Apartment,25.1843104,55.2755156
544,Studio Apartment In Marina,Studio,1,425 sqft,"5,500","Marina Diamond 1, Marina Diamonds, Dubai Marina, Dubai",Apartment,25.0799116,55.14468480000001
545,SUMMER OFFER !! HOTEL ROOM !! WITHOUT KITCHEN !! ALL BILLS INC. .,Studio,1,200 sqft,"2,749","Al Mankhool, Bur Dubai, Dubai",Hotel Apartment,25.2459667,55.29499759999999
546,Maison Privee - Classy Apt w/ Terrace & Direct Burj Khalifa Views,2,3,"1,943 sqft","14,000","Bellevue Tower 1, Bellevue Towers, Downtown Dubai, Dubai",Apartment,25.1937032,55.2725735
547,Delux 1BR Apartment - Promo Offer - Fully Furnished and Equipped Kitchen - walking distance to Mall of Emirates - Near Metro Station - Free Parking,1,2,840 sqft,"5,999","Al Barsha 1, Al Barsha, Dubai",Apartment,25.1103799,55.1954315
548,Stunning Studio at Damac Maison Prive at affordable Price,Studio,1,450 sqft,"5,990","Damac Maison Prive Tower B, DAMAC Maison Prive, Business Bay, Dubai",Apartment,25.1843104,55.2755156
549,Large Studio | Serviced Apartment | Free Cleaning|,Studio,1,450 sqft,"5,499","Naif, Deira, Dubai",Hotel Apartment,25.2727524,55.3129667
550,Fully Furnished | Upgraded | Family Community | Inclusive All* | No Commission,Studio,1,610 sqft,"4,500","Al Khail Heights, Al Quoz 4, Al Quoz, Dubai",Apartment,25.1583051,55.25459859999999
551,Superior Studio Hotel Apartment,Studio,1,280 sqft,"6,000","Millennium Place Barsha Heights Hotel, Barsha Heights (Tecom), Dubai",Hotel Apartment,25.092076,55.17641219999999
552,Attached Balcony | Bills included | studio,Studio,1,441 sqft,"10,999","InterContinental Residence Suites, Marsa Plaza, Dubai Festival City, Dubai",Apartment,25.2314982,55.3469559
553,SUMMER Offers || Newly Furnished || You Can Afford To Dwell Well |BEST PRICE,Studio,1,550 sqft,"2,499","France Cluster, International City, Dubai",Apartment,25.1609303,55.4007923
554,| CHEAP || HIGH FLOOR || CITY VIEW || WEEKLY CLEANING || NEAR MARINA MALL |,2,3,"1,450 sqft","12,499","Safeer Tower, Dubai Marina, Dubai",Apartment,25.0783206,55.1418324
555,Quaint 1BR I Fully Furnished | DAILY OFFERS AVAILABLE!,1,1,771 sqft,"7,500","Creek Horizon, Dubai Creek Harbour, Dubai",Apartment,25.2063429,55.3452329
556,FLASH SALE OFFER !! STUDIO ROOM !! FULLY FURNISHED !! FREE BILLS,Studio,1,400 sqft,"3,999","Hera Tower, Dubai Sports City, Dubai",Apartment,25.0403885,55.2225976
557,Lavish 1 bhk w/ Panoramic Marina view || 10 min to metro,1,1,905 sqft,"6,500","Time Place, Dubai Marina, Dubai",Apartment,25.080494,55.144181
558,No Commission - Two Bedroom Serviced Apartment,2,2,807 sqft,"9,000","Jannah Place Dubai Marina, Dubai Marina, Dubai",Hotel Apartment,25.0697814,55.13279
559,Luxuriously Furnished 1 Bed | High Floor | Ready to Move in,1,2,"1,050 sqft","7,990","Tower B, DAMAC Towers by Paramount Hotels and Resorts, Business Bay, Dubai",Apartment,25.1831647,55.272887
560,FURNISHED 1BHKAPARTMENT/ ALL BILLS INCLUDED,1,1,410 sqft,"5,399","Marina Plaza, Dubai Marina, Dubai",Apartment,25.0753976,55.1398252
561,Fully furnished Studio - No Comission,Studio,1,400 sqft,"5,500","Double Tree by Hilton, Al Barsha 1, Al Barsha, Dubai",Hotel Apartment,25.1108025,55.1955445
562,Summer Offer! limited availability.  All bills included.  Fully furnished with kitchenette.,Studio,1,441 sqft,"6,000","Radisson RED Hotel, Dubai Silicon Oasis, Dubai",Hotel Apartment,25.119046,55.3798581
563,Furnished | Balcony | Kitchenette,1,1,622 sqft,"17,000","InterContinental Dubai Marina, Dubai Marina, Dubai",Hotel Apartment,25.0789633,55.1378512
564,Community View | Weekly Cleaning | Bills Included,2,2,"1,495 sqft","17,950","Rahaal, Madinat Jumeirah Living, Umm Suqeim, Dubai",Apartment,25.1353776,55.1893765
565,HOTEL ROOM FULLY FURNISHED ! ALL BILLS IN !!,Studio,1,420 sqft,"2,699","Al Mankhool, Bur Dubai, Dubai",Hotel Apartment,25.2459667,55.29499759999999
566,All bills included | Waterfront | Signature Category,2,3,"2,035 sqft","26,500","InterContinental Residence Suites, Marsa Plaza, Dubai Festival City, Dubai",Apartment,25.2314982,55.3469559
567,DoubleTree by Hilton - Furnished 2BR Family Hotel Apartment,2,2,"1,130 sqft","12,000","Double Tree by Hilton, Al Barsha 1, Al Barsha, Dubai",Hotel Apartment,25.1108025,55.1955445
